,price,adress,Комнат,Площадь,Кухня,Этаж,Ремонт,Тип сделки,Количество балконов,Мусоропровод,Год постройки,Материал стен,Серия дома,Количество этажей,Лифт,Тип перекрытий,Тип фундамента,Горячее водоснабжение,Количество квартир,Холодное водоснабжение,Теплоснабжение,Энергоснабжение,Водоотведение,Балкон,Детская площадка,Год ввода в эксплуатацию,Класс энергоэффективности,Количество подъездов,Количество лифтов,Жилая,Высота потолков,Грузовой лифт,Газ,Лет в собственности,Вид из окон,Вентиляция,Количество собственников,Несовершеннолетние собственники,Прописанные несовершеннолетние,Перепланировка,Спортивная площадка,Санузел,Наименьшее количество этажей,Площадь парковки,latitude,longitude
0,10800000.0,"Владивосток, Аллилуева улица, 3",3.0,65.1,12.0,8.0,1,Свободная продажа,1.0,есть,1982.0,Панельный,П-43,16.0,1.0,Железобетонный,Ленточный,Открытая с отбором сетевой воды на горячее водоснабжение из тепловой сети,,,,,,1,,,,,,,,,,,,,,,,,,,,,43.1273453,131.92523920371065
1,4700000.0,"Владивосток, улица Нейбута, 2ак",1.0,28.4,6.0,25.0,0,,1.0,,2023.0,Монолитно-кирпичный,,25.0,,Железобетонный,,Центральное,275.0,,,,,1,,,,,,,,,,,,,,,,,,,,,43.1247669,131.9573481
2,4350000.0,"Приморскийкрай, Владивосток, 2",2.0,44.0,8.0,2.0,1,Свободная продажа,1.0,,1950.0,Блочный,,2.0,,Деревянный,Ленточный,,,Центральное,Центральное,Центральное,Центральное,0,,,,,,,,,,,,,,,,,,,,,,
3,5850000.0,"Приморскийкрай, Владивосток, улица Полковника Фесюна, 16",,36.6,6.0,3.0,0,Свободная продажа,1.0,,2024.0,Монолитный,,25.0,,Железобетонный,,Центральное,311.0,,,,,1,,,,,,,,,,,,,,,,,,,,,,
4,15300000.0,"Владивосток, улица Леонова, 70",4.0,71.0,6.0,21.0,1,Свободная продажа,,,2019.0,Монолитный,,,,,,,,,,,,0,,,,,,,,,,,,,,,,,,,,,43.08745,131.856284
5,9300000.0,"Владивосток, Луч, улица Тухачевского, 61",2.0,91.0,20.0,3.0,0,,1.0,,2014.0,Монолитный,,4.0,,Железобетонный,,Поквартирный котел,,,,,,1,есть,2018.0,,,,,,,,,,,,,,,,,,,,
6,13400000.0,"Владивосток, улица Майора Филипова, 14",2.0,62.2,,3.0,1,Свободная продажа,1.0,,2021.0,Монолитный,,24.0,,Железобетонный,,Центральное,219.0,,,,,0,,,,,,,,,,,,,,,,,,,,,43.168588400000004,131.94950257893308
7,4000000.0,"Владивосток, улица Часовитина, 21",1.0,34.2,10.0,2.0,0,,,есть,1982.0,Панельный,у-0101,9.0,1.0,Железобетонный,Ленточный,,152.0,,,,,0,,,E,,,,,,,,,,,,,,,,,,43.096342899999996,131.94498826067343
8,7000000.0,"Владивосток, Луговая улица, 64",3.0,62.9,5.8,2.0,1,,,,1974.0,Панельный,П-30,5.0,,Железобетонный,Ленточный,Открытая с отбором сетевой воды на горячее водоснабжение из тепловой сети,,Центральное,Центральное,,,0,,,,,,,,,,,,,,,,,,,,,43.1334597,131.9466641998299
9,3700000.0,"Владивосток, Дом№20",1.0,23.3,3.3,1.0,1,,,,,Панельный,,9.0,,,,,,,,,,0,,,,,,,,,,,,,,,,,,,,,,
10,2950000.0,"Владивосток, Сельская улица, 8",,16.8,5.0,9.0,1,,,есть,1983.0,Панельный,ПП-83,9.0,1.0,Железобетонный,Ленточный,Открытая с отбором сетевой воды на горячее водоснабжение из тепловой сети,,,,,,0,,,,,,,,,,,,,,,,,,,,,43.13214205,131.9387794
11,4850000.0,"Владивосток, Чистый Квартал, Русская улица, 63л",1.0,36.8,10.0,2.0,0,,1.0,,,Панельный,,10.0,,,,,,,,,,1,,,,,,,,,,,,,,,,,,,,,,
12,11800000.0,"Владивосток, проспект Красного Знамени, 160а",2.0,53.3,25.1,1.0,1,,,,2019.0,Монолитный,,24.0,,Железобетонный,,Центральное,,,,,,0,,,,,,,,,,,,,,,,,,,,,43.1203675,131.93121880348838
13,5100000.0,"Владивосток, 2",1.0,30.9,5.0,3.0,1,,,,1964.0,Кирпичный,1-528,5.0,,Железобетонный,Ленточный,Закрытая с приготовлением горячей воды на ЦТП,,Центральное,,,,0,,,E,,,,,,,,,,,,,,,,,,43.254036049999996,132.00916640629424
14,5950000.0,"Владивосток, улица Маковского, 193",2.0,41.5,6.0,5.0,1,,1.0,,1969.0,Кирпичный,v-кирпичный,5.0,,Железобетонный,,,,Центральное,Центральное,,Центральное,1,,,,4.0,,,,,,,,,,,,,,,,,43.23368255,132.0224931993368
15,3150000.0,"Приморскийкрай, Владивосток, улица Сабанеева, 1",2.0,34.3,4.5,8.0,1,,1.0,,,Кирпично-монолитный,,25.0,,,,,,,,,,0,,,,,,,,,,,,,,,,,,,,,,
16,13950000.0,"Владивосток, проспект Красного Знамени, 30",4.0,76.0,5.0,5.0,1,Свободная продажа,1.0,есть,1979.0,Кирпичный,01-пз индивидуальный проект,9.0,1.0,Железобетонный,Ленточный,Открытая с отбором сетевой воды на горячее водоснабжение из тепловой сети,,,,,,0,,,,,1.0,,,,,,,,,,,,,,,,43.12845945,131.89490095
17,5000000.0,"Владивосток, улица Часовитина, 1",1.0,33.8,7.0,5.0,1,,1.0,есть,1980.0,Панельный,,9.0,1.0,Железобетонный,Сборный,Открытая с отбором сетевой воды на горячее водоснабжение из тепловой сети,,Центральное,,,,1,,,,,1.0,,,,,,,,,,,,,,,,43.096104,131.93924817702876
18,5800000.0,"Владивосток, Находкинская улица, 9дк",2.0,46.6,8.0,4.0,0,,1.0,,,Блочный,,4.0,,,,,,,,,,0,,,,,,,,,,,,,,,,,,,,,,
19,7500000.0,"Владивосток, Монтажная улица, 1",2.0,46.6,7.0,10.0,1,Свободная продажа,2.0,,1971.0,Панельный,121,12.0,1.0,Железобетонный,Ленточный,,48.0,,,,,0,,,E,,1.0,36 м2,,,,,,,,,,,,,,,43.09585935,131.95810908630273
20,13000000.0,"Владивосток, улица Крыгина, 17",3.0,77.0,10.0,2.0,1,,1.0,,1960.0,Кирпичный,v-кирпичный,4.0,,Железобетонный,Иной,Открытая с отбором сетевой воды на горячее водоснабжение из тепловой сети,,Центральное,Центральное,,,0,,,,,,,,,,,,,,,,,,,,,43.0926549,131.8622118
21,4600000.0,"Владивосток, Добровольского улица, 31",1.0,29.5,9.0,1.0,1,,,,1964.0,Панельный,60,5.0,,Железобетонный,Ленточный,Открытая с отбором сетевой воды на горячее водоснабжение из тепловой сети,,Центральное,,,,0,,,E,,,,,,,,,,,,,,,,,,43.0950737,131.9759215
22,7200000.0,"Приморскийкрай, Владивосток, Хабаровская улица, 30А",3.0,46.8,6.0,1.0,1,,1.0,,1968.0,Панельный,,5.0,,Железобетонный,Иной,Открытая с отбором сетевой воды на горячее водоснабжение из тепловой сети,,Центральное,Центральное,Центральное,,1,,,,,,,,,,,,,,,,,,,,,,
23,8400000.0,"Владивосток, улица Жигура, 2",3.0,61.5,5.0,1.0,1,,1.0,есть,1978.0,Панельный,81,9.0,1.0,Железобетонный,Ленточный,,,,,,,0,,,B,,1.0,,,,,,,,,,,,,,,,43.1231482,131.9255264018442
24,28000000.0,"Владивосток, Металлистов улица, 5",,,,,1,,,,2010.0,Кирпичный,"14/14, индивидуальный",21.0,1.0,Железобетонный,,Закрытая с приготовлением горячей воды на ЦТП,,Центральное,,Центральное,,1,,,,,,,,,,,,,,,,,,,,,43.11591745,131.91289706248307
25,8750000.0,"Владивосток, Нерчинская улица, 48",2.0,48.1,7.0,7.0,1,Свободная продажа,1.0,,1975.0,Панельный,а жилой дом,9.0,1.0,Железобетонный,,Закрытая с приготовлением горячей воды на ЦТП,,Центральное,,,,1,,,C,,,30 м2,2.6,,,,,,,,,,,,,,43.12586795,131.90094443792572
26,7500000.0,"Владивосток, улица Ладыгина, 5",2.0,49.2,10.0,9.0,1,,1.0,есть,1991.0,Панельный,,10.0,1.0,Железобетонный,Иной,Открытая с отбором сетевой воды на горячее водоснабжение из тепловой сети,,Центральное,,,,0,,,,,,,,,,,,,,,,,,,,,43.1223189,131.95522444891597
27,8900000.0,"Владивосток, проспект 100",4.0,66.8,7.0,9.0,1,Альтернатива,1.0,есть,1968.0,Панельный,,9.0,1.0,Железобетонный,,Открытая с отбором сетевой воды на горячее водоснабжение из тепловой сети,,Центральное,Центральное,,,1,,,,,1.0,,,,,,,,,,,,,,,,43.1552073,131.911553
28,4550000.0,"Приморскийкрай, Владивосток, улица Полковника Фесюна, 16",,26.3,,9.0,0,Свободная продажа,,,2024.0,Монолитный,,25.0,,Железобетонный,,Центральное,311.0,,,,,0,,,,,,"24,3 м2",,нет,нет,,,,,,,,,,,,,
29,7200000.0,"Владивосток, Фрегат, улица Ватутина, 4в",1.0,39.7,11.7,2.0,1,Свободная продажа,,есть,2013.0,Монолитный,,16.0,1.0,Железобетонный,Ленточный,Закрытая с приготовлением горячей воды на ЦТП,,Центральное,,,,1,,,,,,20 м2,,,,Больше пяти,,,,,,,,,,,,
30,8200000.0,"Владивосток, улица Адмирала Кузнецова, 84",3.0,67.1,9.0,8.0,1,,1.0,есть,1984.0,Панельный,111-83,9.0,1.0,Железобетонный,Иной,Открытая с отбором сетевой воды на горячее водоснабжение из тепловой сети,,,,,,0,,,,,,,,,,,,,,,,,,,,,43.115323450000005,131.94906901653374
31,7500000.0,"Владивосток, Русская улица, 58а",2.0,43.7,,8.0,1,Свободная продажа,1.0,есть,1970.0,Панельный,,9.0,1.0,Железобетонный,Ленточный,Открытая с отбором сетевой воды на горячее водоснабжение из тепловой сети,,,,,,1,,,D,,,,,,,,,,,,,,,,,,43.16715775,131.91898180291722
32,9350000.0,"Владивосток, Некрасовский переулок, 3",3.0,64.1,7.7,2.0,0,Альтернатива,1.0,есть,1968.0,Панельный,,9.0,1.0,Железобетонный,,Открытая с отбором сетевой воды на горячее водоснабжение из тепловой сети,,Центральное,Центральное,,,0,,,,,,,,,,,,,,,,,,,,,43.11866675,131.8949865572513
33,4100000.0,"Владивосток, Окатовая улица, 20",1.0,23.1,4.0,1.0,1,,,есть,1976.0,Панельный,"121, панельный жилой дом",9.0,1.0,Железобетонный,,Закрытая с приготовлением горячей воды на ЦТП,,,,,,0,,,C,,1.0,,,,,,,,,,,,,,,,43.0947292,131.9189942402603
34,5200000.0,"Владивосток, Чистый Квартал, Русская улица, 63л",1.0,36.8,10.0,3.0,0,Свободная продажа,1.0,,,Панельный,,10.0,,,,,,,,,,0,,,,,,,,,,,,,,,,,,,,,,
35,5800000.0,"Владивосток, улица Адмирала Кузнецова, 49",,,,,0,,,есть,1988.0,Панельный,,9.0,1.0,Железобетонный,Ленточный,Открытая с отбором сетевой воды на горячее водоснабжение из тепловой сети,,,,,,1,,,C,,,,,,,,,,,,,,,,,,43.121777,131.952567827646
36,6990000.0,"Владивосток, Камский переулок, 14",2.0,40.3,7.0,1.0,1,,1.0,есть,1972.0,Кирпичный,II-29,9.0,1.0,Железобетонный,Ленточный,Открытая с отбором сетевой воды на горячее водоснабжение из тепловой сети,,,,,,0,,,,,,,,,,,,,,,,,,,,,43.1396762,131.9147724404844
37,3170000.0,"Владивосток, Сельская улица, 6",,16.7,3.0,2.0,1,,,есть,1984.0,Панельный,ПП-83,9.0,,Железобетонный,Ленточный,Открытая с отбором сетевой воды на горячее водоснабжение из тепловой сети,,Центральное,,,,0,,,,,,,,,,,,,,,,,,,,,43.13249664999999,131.9397511092788
38,4000000.0,"Владивосток, Русская улица, 79",1.0,23.3,4.0,2.0,1,Свободная продажа,,есть,1974.0,Кирпичный,v-кирпичный,9.0,1.0,Железобетонный,Ленточный,Открытая с отбором сетевой воды на горячее водоснабжение из тепловой сети,,,,,,0,,,,,,,,,,,,,,,,,,,,,43.171970200000004,131.93467763064615
39,12500000.0,"Владивосток, Русская улица, 95",3.0,53.0,10.0,22.0,0,,1.0,,2022.0,Монолитный,,25.0,,Железобетонный,,,,,,,,0,,,,,,,,,,,,,,,,,,,,,43.17579885,131.94006015
40,7300000.0,"Владивосток, Луговая улица, 74",3.0,54.1,6.5,8.0,1,,1.0,есть,1985.0,Панельный,ПП-83,12.0,1.0,Железобетонный,Ленточный,Открытая с отбором сетевой воды на горячее водоснабжение из тепловой сети,,,,,,1,,,,,,,,,,,,,,,,,,,,,43.132404449999996,131.94715715
41,6800000.0,"Владивосток, улица Фадеева, 4а",2.0,45.4,4.0,7.0,1,Свободная продажа,,есть,1974.0,Кирпичный,v-кирпичный,9.0,1.0,Железобетонный,Иной,Открытая с отбором сетевой воды на горячее водоснабжение из тепловой сети,,,,,,0,,,,,,,,,,,,,,,,,,,,,43.1054592,131.9432869
42,7100000.0,"Владивосток, Луговая улица, 60",2.0,46.8,6.0,2.0,1,,1.0,,1970.0,Панельный,П-30,5.0,,Железобетонный,Ленточный,Открытая с отбором сетевой воды на горячее водоснабжение из тепловой сети,90.0,Центральное,,,,0,,,,,,,,,,,,,,,,,,,,,43.1320235,131.94524168829554
43,7300000.0,"Владивосток, улица Тухачевского, 52",2.0,45.7,6.6,7.0,1,Свободная продажа,1.0,есть,1977.0,Панельный,81,9.0,1.0,Железобетонный,Ленточный,,,,,,,0,,,D,,,30 м2,,,,,на улицу,,,,,,,,,,43.157516650000005,131.9287431406459
44,7990000.0,"Владивосток, улица Крыгина, 94",1.0,39.3,10.0,14.0,0,,1.0,,2015.0,Монолитный,25,25.0,1.0,Железобетонный,Сборный,,,Центральное,,,,0,,,A,,,,,,,,,,,,,,,,,,43.0830431,131.8519583
45,4500000.0,"Владивосток, улица Героев Хасана, 18",1.0,24.0,5.0,4.0,1,,1.0,есть,1969.0,Кирпичный,,9.0,1.0,Железобетонный,Сборный,Закрытая с приготовлением горячей воды на ЦТП,,Центральное,,,,0,,,,,,,,,,,,,,,,,,,,,43.0995533,131.9453877
46,9500000.0,"Владивосток, Каштановая улица, 15",3.0,63.2,8.0,7.0,1,,1.0,,1992.0,Панельный,1-панельный,10.0,1.0,Железобетонный,Иной,Открытая с отбором сетевой воды на горячее водоснабжение из тепловой сети,,Центральное,,,,1,,,,,,,,,,,,,,,,,,,,,43.08769155,131.9133636115639
47,6000000.0,"Владивосток, Находкинская улица, 9дк",2.0,48.2,8.0,3.0,0,,1.0,,,Блочный,,4.0,,,,,,,,,,1,,,,,,,,,,,,,,,,,,,,,,
48,13900000.0,"Владивосток, Русская улица, 89",3.0,55.0,,6.0,1,,1.0,,2020.0,Монолитный,,18.0,,Железобетонный,,Центральное,157.0,,,,,1,,,,,,,,,,,,,,,,,,,,,43.1747299,131.93686554964611
49,5700000.0,"Владивосток, Фрегат, улица Ватутина, 4ж",1.0,37.2,8.0,5.0,0,,1.0,,2019.0,Монолитно-кирпичный,,25.0,,Железобетонный,,Центральное,296.0,,,,,1,,,,,,,,,,,,,,,,,,,,,,
50,4700000.0,"Владивосток, улица Адмирала Горшкова, 81",,24.3,12.0,10.0,0,,1.0,,2021.0,Монолитный,,18.0,,Железобетонный,,Центральное,200.0,,,,,1,,,,,,,,,,,,,,,,,,,,,43.17030115,131.96070571744082
51,6350000.0,"Владивосток, Карьерная улица, 20",2.0,38.7,6.0,2.0,1,,1.0,,1975.0,Кирпичный,,5.0,,Железобетонный,,Закрытая с приготовлением горячей воды на ЦТП,,Центральное,Центральное,Центральное,Центральное,1,,,,,,,,,,,,,,,,,,,,,43.14790455,131.96793652345048
52,8500000.0,"Владивосток, улица Вилкова, 12",3.0,62.3,8.0,3.0,1,Свободная продажа,1.0,,1973.0,Блочный,1-панельный,5.0,,Железобетонный,Сборный,Открытая с отбором сетевой воды на горячее водоснабжение из тепловой сети,,Центральное,Центральное,,,1,,,,,,,,,,,,,,,,,,,,,43.10152895,131.9319402056235
53,6000000.0,"Владивосток, проспект 100",1.0,28.7,5.0,4.0,1,,1.0,,1964.0,Панельный,II-32,5.0,,Железобетонный,Ленточный,Открытая с отбором сетевой воды на горячее водоснабжение из тепловой сети,,Центральное,Центральное,,,0,,,,,,,,,,,,,,,,,,,,,43.1552073,131.911553
54,4450000.0,"Владивосток, улица Нейбута, 135",1.0,26.0,8.0,2.0,0,,,,,,,25.0,,,,,,,,,,0,,,,,,,,,,,,,,,,,,,,,43.114587349999994,131.9715006309379
55,7800000.0,"Владивосток, Восточный, Североморская улица, 3к",1.0,40.6,10.0,9.0,0,Свободная продажа,1.0,,2022.0,Монолитный,,17.0,,Железобетонный,,,135.0,,,,,0,,,,,,,,,,,,,,,,,,,,,,
56,5950000.0,"Владивосток, улица Сабанеева, 16в",,,,,0,,,есть,2017.0,Монолитный,II-01,24.0,1.0,Железобетонный,Ленточный,Закрытая с приготовлением горячей воды на ЦТП,,,,,,1,,,,,,,,,,,,,,,,,,,,,43.12880895,131.9511256092946
57,6300000.0,"Приморскийкрай, Владивосток, улица Шошина, 23",2.0,50.7,8.0,8.0,1,,1.0,есть,1979.0,Панельный,П-55,12.0,1.0,Железобетонный,Ленточный,Открытая с отбором сетевой воды на горячее водоснабжение из тепловой сети,,,,,,1,,,,,2.0,,,,,,,,,,,,,,,,,
58,6700000.0,"Владивосток, улица Олега Кошевого, 25",2.0,41.0,6.0,4.0,1,Свободная продажа,,,1959.0,Кирпичный,,4.0,,Железобетонный,Иной,Открытая с отбором сетевой воды на горячее водоснабжение из тепловой сети,,Центральное,Центральное,Центральное,,0,,,,,,,,,,,,,,,,,,,,,43.0932557,131.9143496296984
59,7300000.0,"Владивосток, улица Надибаидзе, 1",2.0,51.1,,1.0,1,,1.0,есть,1988.0,Панельный,111-83,10.0,1.0,Железобетонный,Ленточный,Закрытая с приготовлением горячей воды на ЦТП,,,,,,0,,,,,,,,,,,,,,,,,,,,,43.09557075,131.89472107811957
60,13832000.0,"Владивосток, Тополевая улица, 30",,,,,0,,,,2022.0,Панельный,,25.0,,,,,,,,,,0,,,,,,,"2,7",,,,,,,,,,,,,,43.0993118,131.88777836321123
61,9200000.0,"Владивосток, улица Басаргина, 6Бк",1.0,40.0,9.0,4.0,1,,1.0,,2021.0,Монолитный,,24.0,,Железобетонный,,Центральное,230.0,,,,,1,,,,,,,,,,,,,,,,,,,,,43.0782588,131.9629933
62,4400000.0,"Владивосток, улица Морозова, 7",,16.6,2.0,3.0,1,,,есть,1983.0,Кирпичный,v-кирпичный,9.0,1.0,Железобетонный,Иной,Открытая с отбором сетевой воды на горячее водоснабжение из тепловой сети,,,,,,0,,,,,1.0,,,,,,,,,,,,,,,,43.0924828,131.8642764
63,3580000.0,"Владивосток, проспект Красного Знамени, 133",,22.8,2.0,7.0,1,,,есть,1980.0,Панельный,,9.0,1.0,Железобетонный,Ленточный,Открытая с отбором сетевой воды на горячее водоснабжение из тепловой сети,,,,,,0,,,C,,,,,,,,,,,,,,,,,,43.12320005,131.93459742018814
64,8600000.0,"Владивосток, Парковка",1.0,36.7,6.0,8.0,1,,1.0,,,Кирпично-монолитный,,25.0,,,,,,,,,,0,,,,,,,,,,,,,,,,,,,,,43.2516149,132.0277025
65,6300000.0,"Владивосток, Луч, улица Тухачевского, 61",1.0,38.2,6.0,1.0,1,,,,2014.0,Монолитный,,4.0,,Железобетонный,,Поквартирный котел,,,,,,0,есть,2018.0,,,,,,,,,,,,,,,,,,,,
66,7900000.0,"Владивосток, Народный проспект, 9",3.0,66.2,8.5,8.0,1,,1.0,,,Панельный,,10.0,,,,,,,,,,1,,,,,,,,,,,,,,,,,,,,,43.122908800000005,131.9248662388357
67,12900000.0,"Владивосток, улица Прапорщика Комарова, 52",2.0,42.0,28.0,3.0,1,Свободная продажа,,,1960.0,Кирпичный,,5.0,,Смешанный,,Открытая с отбором сетевой воды на горячее водоснабжение из тепловой сети,,Центральное,Центральное,Центральное,,0,,,,,,14 м2,,,,От трех до пяти,,Приточно-вытяжная,,,,,,,,,43.12054139999999,131.89367415047582
68,5850000.0,"Владивосток, Стрелковая улица, 18к",,24.7,4.0,8.0,1,,1.0,,2023.0,Монолитный,,24.0,,Железобетонный,,,436.0,,,,,0,,,,,,,,,,,,,,,,,,,,,43.1082278,131.9524003
69,10500000.0,"Владивосток, улица Адмирала Горшкова, 36",2.0,50.1,12.0,1.0,1,,1.0,есть,2010.0,Кирпичный,,10.0,1.0,Железобетонный,Ленточный,Закрытая с приготовлением горячей воды на ЦТП,,Центральное,,,,1,,,,,1.0,,,,,,,,,,,,,,,,43.1657409,131.95189707150683
70,9950000.0,"Владивосток, улица Сабанеева, 25",3.0,74.9,10.0,18.0,0,,1.0,,2023.0,Монолитно-кирпичный,,20.0,,Железобетонный,,,,,,,,0,,,,,,,,,,,,,,,,,,,,,43.1304084,131.9417062
71,7900000.0,"Приморскийкрай, Владивосток, улица Гульбиновича, 20",2.0,50.1,8.0,3.0,1,Свободная продажа,1.0,есть,1987.0,Панельный,ПП-83,9.0,1.0,Железобетонный,Ленточный,Закрытая с приготовлением горячей воды на ЦТП,,,,,,0,,,,,1.0,,,,,,,,,,,,,,,,,
72,12900000.0,"Владивосток, 3",1.0,40.0,5.0,5.0,1,Свободная продажа,1.0,,2022.0,Монолитный,,7.0,,Железобетонный,,Поквартирный котел,,,,,,0,,,,,,,,,,,,,,,,,,,,,43.1049777,131.8791083
73,11680000.0,"Владивосток, проспект Красного Знамени, 139",1.0,48.6,9.0,12.0,1,Свободная продажа,1.0,,2022.0,Монолитный,,25.0,,Железобетонный,,Поквартирный котел,120.0,,,,,1,,,,,,,,,,,,,,,,,,,,,43.125868249999996,131.93411762227737
74,14400000.0,"Владивосток, Феодосийская улица, 35",3.0,70.6,9.0,12.0,1,Альтернатива,1.0,,2020.0,Кирпичный,,24.0,,Железобетонный,,Поквартирный котел,,,,,,1,,,,,,,,,,,,,,,,,,,,,43.086846800000004,131.9613083997826
75,4500000.0,"Владивосток, Некрасовская улица, 52",1.0,22.6,3.0,3.0,1,Свободная продажа,,есть,1975.0,Панельный,1-464,9.0,1.0,Железобетонный,Ленточный,Открытая с отбором сетевой воды на горячее водоснабжение из тепловой сети,,,,,,0,,,,,,,,,,,,,,,,,,,,,43.1225647,131.9078475
76,13500000.0,"Владивосток, улица Грибоедова, 46а",,,,,1,,,,2022.0,Монолитный,,22.0,,Железобетонный,,Центральное,,,,,,1,,,,,,,,,,,,,,,,,,,,,43.1198395,131.9112378
77,8700000.0,"Владивосток, Можжевеловая улица, 18",,35.6,,14.0,1,Свободная продажа,,есть,2020.0,Монолитный,,21.0,,Железобетонный,,Центральное,202.0,,,,,1,,,,,,32 м2,"2,7",,,От трех до пяти,,,1.0,нет,,,,,,,43.100259199999996,131.91368829406747
78,3800000.0,"Владивосток, Днепровский переулок, 4",1.0,23.0,4.0,7.0,0,Свободная продажа,,есть,1975.0,Панельный,II-29,9.0,1.0,Железобетонный,Ленточный,Открытая с отбором сетевой воды на горячее водоснабжение из тепловой сети,,,,,,0,,,,,,11 м2,,,,,на улицу,,,,,,,,,,43.1452039,131.91527220136933
79,7000000.0,"Владивосток, улица Черняховского, 21",2.0,50.4,8.0,5.0,1,,1.0,есть,1992.0,Панельный,,10.0,1.0,Железобетонный,Иной,Открытая с отбором сетевой воды на горячее водоснабжение из тепловой сети,,Центральное,,,,1,,,,,,,,,,,,,,,,,,,,,43.1198312,131.9581886012181
80,6600000.0,"Владивосток, улица Котельникова, 16",2.0,45.9,6.0,9.0,1,,1.0,есть,1974.0,Панельный,81,9.0,1.0,Железобетонный,Ленточный,Открытая с отбором сетевой воды на горячее водоснабжение из тепловой сети,,,,,,0,,,,,,,,,,,,,,,,,,,,,43.1299846,131.93260578614002
81,9600000.0,"Владивосток, улица Амурская, 9",3.0,58.2,7.7,2.0,1,Альтернатива,1.0,есть,1968.0,Панельный,,9.0,1.0,Железобетонный,Ленточный,Открытая с отбором сетевой воды на горячее водоснабжение из тепловой сети,,Центральное,,,,0,,,,,,,,,,,,,,,,,,,,,43.133465,131.88876585
82,5850000.0,"Владивосток, Зелёный Бульвар, улица Зелёный Бульвар, 27к",1.0,36.7,5.0,8.0,0,Свободная продажа,1.0,,,Панельный,,25.0,,,,,,,,,,0,,,,,,,,,,,,,,,,,,,,,,
83,3599000.0,"Владивосток, Липовая улица, 2",1.0,23.4,3.4,7.0,1,Свободная продажа,1.0,есть,1973.0,Панельный,,9.0,1.0,Железобетонный,Ленточный,Закрытая с приготовлением горячей воды на ЦТП,396.0,,,,,1,,,,,,,,,,,,,,,,,,,,,43.09605,131.8968723065593
84,7200000.0,"Владивосток, улица Леонова, 66",,,,,1,,,,2011.0,Монолитный,"14/14, индивидуальный",24.0,1.0,Железобетонный,Бетонные столбы,,,Центральное,,,,0,,,C,,,,,,,,,,,,,,,,,,43.087293,131.8559007
85,7100000.0,"Владивосток, улица Майора Филипова, 10к",,38.0,7.0,9.0,1,Свободная продажа,,,2023.0,Монолитный,,24.0,,Железобетонный,,Центральное,219.0,,,,,1,,,,,,"19,4 м2","2,6",,,Меньше трех,,,2.0,,,,,,,,43.1683882,131.9461452
86,5600000.0,"Владивосток, улица Амурская, 22",1.0,30.4,8.0,4.0,1,,1.0,,1967.0,Панельный,1-панельный,5.0,,Железобетонный,Ленточный,Открытая с отбором сетевой воды на горячее водоснабжение из тепловой сети,,Центральное,Центральное,,,0,,,,,,,,,,,,,,,,,,,,,43.1361962,131.8952567
87,16000000.0,"Владивосток, Аксаковская улица, 3",,47.5,,8.0,1,,,,2018.0,Монолитный,,24.0,,Железобетонный,,Центральное,,,,,,0,,2019.0,,,,,,,,,,,,,,,,,,,43.1190309,131.8972206
88,11100000.0,"Владивосток, улица Шошина, 17а",3.0,80.0,9.0,4.0,1,Свободная продажа,,есть,1980.0,Панельный,1-панельный,9.0,1.0,Железобетонный,Ленточный,Закрытая с приготовлением горячей воды на ЦТП,,,,,,0,,,,,,71 м2,,,,,"во двор, на лес, на улицу",,,,,,,,,,43.1523081,131.92468790131372
89,8120000.0,"Владивосток, улица Нестерова, 1",2.0,58.0,,13.0,0,,,,2021.0,Монолитно-кирпичный,,25.0,,Железобетонный,,Поквартирный котел,,,,,,0,,,,,,,,,,,,,,,,,,,,,43.100162,131.946842
90,12150000.0,"Владивосток, улица Адмирала Кузнецова, 92",4.0,140.0,33.0,1.0,1,Свободная продажа,1.0,есть,1990.0,Панельный,,10.0,1.0,Железобетонный,Иной,Открытая с отбором сетевой воды на горячее водоснабжение из тепловой сети,,Центральное,,,,1,,,,,,,,,,,,,,,,,,,,,43.116462049999996,131.95253349314612
91,3600000.0,"Владивосток, улица Морозова, 7",1.0,16.5,3.0,2.0,1,,,есть,1983.0,Кирпичный,v-кирпичный,9.0,1.0,Железобетонный,Иной,Открытая с отбором сетевой воды на горячее водоснабжение из тепловой сети,,,,,,0,,,,,1.0,,,,,,,,,,,,,,,,43.0924828,131.8642764
92,11700000.0,"Владивосток, улица Толстого, 25",3.0,70.8,12.0,4.0,1,,1.0,есть,1986.0,Панельный,,9.0,1.0,Железобетонный,Ленточный,Открытая с отбором сетевой воды на горячее водоснабжение из тепловой сети,,Центральное,,,,1,,,,,,,,,,,,,,,,,,,,,43.1217229,131.9096875
93,10000000.0,"Владивосток, Артековская улица, 7",3.0,67.9,12.8,4.0,0,Свободная продажа,,есть,1993.0,Панельный,,10.0,,Железобетонный,,Центральное,,,,,,0,,,,,,"42,1 м2",,нет,,,,,,,,,,,,,43.209236700000005,132.1481407
94,12900000.0,"Владивосток, Можайская улица, 14",3.0,60.0,15.0,19.0,1,,1.0,,2021.0,Кирпичный,,24.0,,Железобетонный,,Центральное,233.0,,,,,1,,,,,,,,,,,,,,,,,,,,,43.0878371,131.96095888911066
95,8500000.0,"Владивосток, 2",2.0,62.4,1.0,3.0,0,,,,2021.0,Монолитный,,4.0,,Железобетонный,,Центральное,72.0,,,,,0,,,,,,,,,,,,,,,,,,,,,43.254036049999996,132.00916640629424
96,6300000.0,"Владивосток, Сахалинская улица, 15",1.0,34.8,5.0,4.0,1,Свободная продажа,1.0,есть,1984.0,Панельный,П-111,9.0,1.0,Железобетонный,Ленточный,,,,,,,1,,,E,,,,,,,,,,,,,,,,,,43.0950732,131.9668975142644
97,7300000.0,"Владивосток, улица Никифорова, 2",2.0,51.3,8.0,5.0,1,,1.0,есть,1993.0,Панельный,111-83,10.0,1.0,Железобетонный,Ленточный,,160.0,,,,,0,,,D,,,,,,,,,,,,,,,,,,43.09182885,131.95519528773343
98,6000000.0,"Владивосток, улица Кирова, 12",,,,,1,,,,1966.0,Панельный,1-464,5.0,,Железобетонный,Сборный,Открытая с отбором сетевой воды на горячее водоснабжение из тепловой сети,,Центральное,Центральное,,,1,,,,,,,,,,,,,,,,,,,,,43.17026105,131.9123061649471
99,13400000.0,"Владивосток, улица Надибаидзе, 17",3.0,66.7,9.0,6.0,0,Свободная продажа,1.0,есть,1995.0,Панельный,ПП-83,10.0,1.0,Железобетонный,Ленточный,Закрытая с приготовлением горячей воды на ЦТП,,,,,,1,,,,,,49 м2,,,,,на улицу,,,,,,,,,,43.09752485,131.89319050384688
100,4300000.0,"Владивосток, улица Полетаева, 6д",2.0,46.2,5.0,2.0,1,Свободная продажа,,,2021.0,Монолитный,,21.0,,Железобетонный,,Центральное,,,,,,0,,,,,,,,,,,,,,,,,,,,,43.212547,131.9506609
101,5950000.0,"Владивосток, Кипарисовая улица, 22",2.0,42.7,15.0,5.0,1,Свободная продажа,,,1970.0,Кирпичный,II-34,5.0,,Железобетонный,Ленточный,,,Центральное,Центральное,Центральное,,0,,,,,,,,,,,,,,,,,,,,,43.091308,131.91727007440227
102,10166000.0,"Владивосток, Главная улица, 35г",3.0,88.4,,3.0,1,Свободная продажа,,,2023.0,Монолитный,,4.0,,Железобетонный,,Центральное,43.0,,,,,0,,,,,,"81,8 м2","2,8",,,,,,,нет,нет,нет,,,,,43.250939349999996,132.0257714252688
103,13400000.0,"Владивосток, улица Грибоедова, 46а",3.0,88.8,15.0,18.0,0,,1.0,,2022.0,Монолитный,,22.0,,Железобетонный,,Центральное,,,,,,1,,,,,,,,,,,,,,,,,,,,,43.1198395,131.9112378
104,8900000.0,"Владивосток, улица Адмирала Смирнова, 14",3.0,53.9,15.0,1.0,1,,1.0,есть,2013.0,Панельный,,10.0,1.0,Железобетонный,,Центральное,,,,,,1,есть,,,,,,,,,,,,,,,,есть,,,,43.1628757,131.9638879556618
105,9500000.0,"Владивосток, улица Нейбута, 4Б",1.0,43.0,6.0,23.0,1,Свободная продажа,1.0,,2021.0,Монолитно-кирпичный,,25.0,,Железобетонный,,Центральное,260.0,,,,,0,,,,,,,,,,,,,,,,,,,,,43.1033152,131.96266658816523
106,6800000.0,"Владивосток, Восточный Луч, улица Полковника Фесюна, 20",1.0,28.0,5.0,10.0,1,Свободная продажа,1.0,,2023.0,Кирпичный,,25.0,,Железобетонный,,Центральное,311.0,,,,,1,,2024.0,,,,,,,,,,,,,,,,,,,,
107,5600000.0,"Владивосток, Русская улица, 73",1.0,33.9,,7.0,1,,,есть,1981.0,Кирпичный,v-кирпичный,9.0,1.0,Железобетонный,Ленточный,,,,,,,0,,,D,,1.0,,,,,,,,,,,,,,,,43.1680241,131.94020843033394
108,7400000.0,"Владивосток, Окатовая улица, 8",3.0,61.1,6.0,4.0,0,Свободная продажа,1.0,,1975.0,Панельный,П-30,5.0,,Железобетонный,Ленточный,Открытая с отбором сетевой воды на горячее водоснабжение из тепловой сети,,Центральное,Центральное,,,1,,,,,,,,,,,,,,,,,,,,,43.098686400000005,131.91850045573904
109,61000000.0,"Владивосток, улица Толстого, 40а",4.0,260.0,25.0,16.0,1,Свободная продажа,,,2018.0,Монолитный,,16.0,,Железобетонный,,Центральное,,,,,,0,,,,,,120 м2,4,,,Больше пяти,,,,,,,,,,,43.1225492,131.9134523521364
110,6650000.0,"Владивосток, Зелёный Бульвар, улица Зелёный Бульвар, 23",1.0,41.1,17.0,21.0,0,,1.0,,2021.0,Кирпичный,,27.0,,Железобетонный,,Центральное,322.0,,,,,0,,,,,,,,,,,,,,,,,,,,,43.11831995,131.97053359933017
111,5800000.0,"Владивосток, Космонавтов улица, 3",2.0,44.2,10.0,4.0,1,,1.0,,1970.0,Панельный,1-515-5,5.0,,Железобетонный,Ленточный,Открытая с отбором сетевой воды на горячее водоснабжение из тепловой сети,,Центральное,,,,1,,,E,,,,,,,,,,,,,,,,,,43.08917075,131.9677004518798
112,6500000.0,"Владивосток, Брусничная улица, 7",1.0,28.5,5.0,1.0,0,,1.0,,2023.0,Монолитно-кирпичный,,4.0,,,,,,,,,,0,,,,,,,,,,,,,,,,,,,,,43.230552349999996,132.02866555
113,5700000.0,"Владивосток, Русская улица, 73",2.0,34.5,11.5,6.0,1,Свободная продажа,,есть,1981.0,Кирпичный,v-кирпичный,9.0,1.0,Железобетонный,Ленточный,,,,,,,1,,,D,,,23 м2,,,,Меньше трех,,,,,,,,,,,43.17032135,131.94208531306577
114,6550000.0,"Владивосток, улица Кирова, 54",2.0,43.6,6.0,2.0,0,Свободная продажа,1.0,,1974.0,Панельный,2.многоквартирный,5.0,,Железобетонный,Ленточный,Открытая с отбором сетевой воды на горячее водоснабжение из тепловой сети,,Центральное,,,,1,,,D,,,30 м2,,,,,,,,,,,,,,,43.1776722,131.91110877786386
115,20900000.0,"Владивосток, Океанский проспект, 123Б",,,,,1,,,,1999.0,Кирпичный,,15.0,,Железобетонный,,Открытая с отбором сетевой воды на горячее водоснабжение из тепловой сети,,Центральное,Центральное,Центральное,Центральное,0,,,,,,,,,,,,,,,,,,,,,43.1333528,131.9024106
116,12650000.0,"Владивосток, Светланская улица, 22",2.0,41.5,5.0,16.0,1,Свободная продажа,1.0,,1988.0,Панельный,,5.0,,,,,,,,,,1,,,,,,,,,,,,,,,,,,,,,43.1155473,131.8831944055829
117,15000000.0,"Владивосток, улица Ильичёва, 11",3.0,56.0,5.0,9.0,1,Свободная продажа,1.0,есть,1967.0,Кирпичный,II-29,9.0,1.0,Железобетонный,Сборный,,54.0,,,,,1,,,,,,,,,,,,,,,,,,,,,43.1470437,131.90883739999998
118,8400000.0,"Владивосток, Зелёный Бульвар, улица Зелёный Бульвар, 25",1.0,37.6,9.0,5.0,1,,1.0,,2021.0,Монолитный,,25.0,,Железобетонный,,Центральное,311.0,,,,,1,,,,,,,,,,,,,,,,,,,,,43.11782115,131.97027802496342
119,12500000.0,"Владивосток, проспект Красного Знамени, 98",,,,,1,,,есть,1978.0,Панельный,,9.0,1.0,Железобетонный,,Открытая с отбором сетевой воды на горячее водоснабжение из тепловой сети,,Центральное,Центральное,,,0,,,,,,,,,,,,,,,,,,,,,43.1244818,131.91887817043326
120,10166000.0,"Владивосток, Главная улица, 35г",2.0,88.4,,1.0,1,Свободная продажа,,,2023.0,Монолитный,,4.0,,Железобетонный,,Центральное,43.0,,,,,1,,,,,,"85,4 м2","2,8",,,,,,,нет,нет,нет,,,,,43.250939349999996,132.0257714252688
121,5000000.0,"Владивосток, Монтажная улица, 5",1.0,31.3,8.0,1.0,1,,,,1960.0,Кирпичный,v-кирпичный,5.0,,Железобетонный,Ленточный,Открытая с отбором сетевой воды на горячее водоснабжение из тепловой сети,40.0,Центральное,,,,0,,,,,,,,,,,,,,,,,,,,,43.0955692,131.95934905006504
122,4200000.0,"Владивосток, улица Нейбута, 141",1.0,18.8,10.0,17.0,0,,1.0,,2018.0,Панельный,121,9.0,,Железобетонный,,Центральное,,,,,,0,,,,,,,,,,,,,,,,,,,,,43.11842005,131.96797264705754
123,23200000.0,"Владивосток, Инженерный переулок, 14а",3.0,128.0,30.0,5.0,1,,1.0,,2008.0,Монолитный,,8.0,,Железобетонный,,Центральное,,,,,,0,,,,,,,,,,,,,,,,,,,,,43.11451355,131.8783384398115
124,13000000.0,"Владивосток, улица Крыгина, 86в",3.0,76.3,,7.0,1,Свободная продажа,1.0,есть,2010.0,Монолитный,,15.0,,Железобетонный,Иной,Центральное,215.0,,,,,0,,,B+,,,,,,,,,,,,,,,,,,43.085612049999995,131.85362410081632
125,4900000.0,"Владивосток, Зелёный Бульвар, улица Зелёный Бульвар, 21",1.0,24.1,3.0,16.0,0,,1.0,,2020.0,Монолитный,,26.0,,Железобетонный,,Центральное,311.0,,,,,0,,,,,,,,,,,,,,,,,,,,,43.118826549999994,131.97073175000003
126,7700000.0,"Владивосток, улица Черняховского, 19",2.0,50.0,8.0,9.0,0,Свободная продажа,1.0,есть,1992.0,Панельный,,10.0,1.0,Железобетонный,Иной,Открытая с отбором сетевой воды на горячее водоснабжение из тепловой сети,,Центральное,,,,0,,,,,1.0,32 м2,,,,,,,,,,,,,,,43.11837055,131.95895073395553
127,3100000.0,"Владивосток, Сельская улица, 6",,16.8,2.0,5.0,1,,,есть,1984.0,Панельный,ПП-83,9.0,,Железобетонный,Ленточный,Открытая с отбором сетевой воды на горячее водоснабжение из тепловой сети,,Центральное,,,,0,,,,,,,,,,,,,,,,,,,,,43.13249664999999,131.9397511092788
128,7500000.0,"Владивосток, улица Калинина, 115а",1.0,32.1,9.0,13.0,1,Свободная продажа,1.0,,2009.0,Железобетон,v-кирпичный,14.0,1.0,Монолитный,,Центральное,,Центральное,Автономная котельная (крышная встроенно-пристроенная),,,0,,,,,,,,,,,,,,,,,,,,,43.092567149999994,131.88529560082083
129,7900000.0,"Владивосток, проспект 100",2.0,50.6,9.0,2.0,1,,1.0,,2001.0,Панельный,111-83,10.0,1.0,Железобетонный,Ленточный,Открытая с отбором сетевой воды на горячее водоснабжение из тепловой сети,,Центральное,,,,0,,,,,,,,,,,,,,,,,,,,,43.1552073,131.911553
130,6800000.0,"Владивосток, Снеговая улица, 9",1.0,37.7,6.0,9.0,0,,1.0,,,Монолитный,,23.0,,,,,,,,,,0,,,,,,,,,,,,,,,,,,,,,43.13563165,131.94452195152763
131,7600000.0,"Владивосток, Русская улица, 95",,25.1,5.0,22.0,1,Свободная продажа,,,2022.0,Монолитный,,25.0,,Железобетонный,,,,,,,,0,,,,,,,,,,,,,,,,,,,,,43.17579885,131.94006015
132,15000000.0,"Владивосток, проспект Красного Знамени, 117д",,,,,1,,,,2012.0,Монолитный,,24.0,1.0,Железобетонный,,Закрытая с приготовлением горячей воды на ЦТП,193.0,Центральное,,Центральное,,0,,,,,,,,,,,,,,,,,,,,,43.1258849,131.9200838
133,5350000.0,"Владивосток, Хабаровская улица, 31а",1.0,24.0,4.0,3.0,1,Свободная продажа,,есть,1968.0,Кирпичный,1-панельный,9.0,1.0,Железобетонный,Ленточный,Открытая с отбором сетевой воды на горячее водоснабжение из тепловой сети,,,,,,0,,,,,,,,,,,,,,,,,,,,,43.13460995,131.89961704981607
134,6100000.0,"Владивосток, Стрелковая улица, 18к",,24.3,4.0,5.0,1,,,,2023.0,Монолитный,,24.0,,Железобетонный,,,436.0,,,,,0,,,,,,,,,,,,,,,,,,,,,43.1135561,131.9570591
135,4200000.0,"Владивосток, улица Адмирала Угрюмова, 5",1.0,30.2,2.0,2.0,1,,,,1978.0,Кирпичный,v-кирпичный,5.0,,Железобетонный,Сборный,,,Центральное,Центральное,Центральное,,0,,,,,,,,,,,,,,,,,,,,,43.2081305,132.0931769115094
137,3100000.0,"Владивосток, Сельская улица, 12",1.0,16.2,3.0,3.0,0,,,есть,1982.0,Панельный,ПП-83,9.0,1.0,Железобетонный,Ленточный,Открытая с отбором сетевой воды на горячее водоснабжение из тепловой сети,,,,,,0,,,,,,,,,,,,,,,,,,,,,43.1326623,131.93821771476945
138,10500000.0,"Владивосток, улица Кирова, 21",3.0,56.1,8.0,2.0,1,,1.0,есть,1989.0,Панельный,2.многоквартирный,12.0,1.0,Железобетонный,Ленточный,,,,,,,0,,,D,,2.0,,,,,,,,,,,,,,,,43.17241665,131.90971443718502
139,9550000.0,"Владивосток, улица Авраменко, 17",2.0,45.3,,2.0,0,Свободная продажа,,,1977.0,Кирпичный,v-кирпичный,9.0,1.0,Железобетонный,,Открытая с отбором сетевой воды на горячее водоснабжение из тепловой сети,,Центральное,Центральное,,,0,,,,,1.0,,,нет,нет,,,,,,,,,,,,43.10134495,131.8633148591122
140,3250000.0,"Владивосток, улица Надибаидзе, 28",,,,,0,,,есть,1978.0,Панельный,"121, панельный жилой дом",9.0,1.0,Железобетонный,Ленточный,,,,,,,1,,,C,,,,,,,,,,,,,,,,,,43.09823845,131.89629816459487
141,41000000.0,"Владивосток, Аксаковская улица, 1",4.0,127.0,,12.0,1,Свободная продажа,1.0,есть,2009.0,Монолитный,,18.0,1.0,Смешанный,Свайный,Открытая с отбором сетевой воды на горячее водоснабжение из тепловой сети,,Центральное,,,,1,,,,,,,,,,,,,,,,,,,,,43.119369,131.8953983
142,6400000.0,"Владивосток, Интернациональная улица, 60",2.0,31.5,10.0,2.0,1,,,,1962.0,Кирпичный,v-кирпичный,5.0,,Железобетонный,Ленточный,Открытая с отбором сетевой воды на горячее водоснабжение из тепловой сети,124.0,Центральное,,,,0,,,,,,,,,,,,,,,,,,,,,43.10108095,131.91402992029242
143,16500000.0,"Владивосток, Русская улица, 97",4.0,191.9,13.5,1.0,1,,1.0,,1984.0,Кирпичный,,3.0,,Железобетонный,Ленточный,Открытая с отбором сетевой воды на горячее водоснабжение из тепловой сети,231.0,Центральное,,,,0,,,D,,,,,,,,,,,,,,,,,,43.17650085,131.93970712227272
144,6500000.0,"Владивосток, Артековская улица, 3",2.0,46.4,5.0,4.0,1,,1.0,есть,1974.0,Панельный,,9.0,,Железобетонный,,Центральное,,,,,,1,,1977.0,,,,,,,,,,,,,,,,,,,43.2101671,132.146555
145,10400000.0,"Владивосток, Шилкинская улица, 11а",2.0,53.3,9.0,9.0,1,,1.0,,2005.0,Панельный,,10.0,1.0,Железобетонный,Ленточный,Закрытая с приготовлением горячей воды на ЦТП,,Центральное,Центральное,,,1,,,,,,,,,,,,,,,,,,,,,43.12097645,131.92469734810308
146,9600000.0,"Владивосток, улица Невельского, 1",3.0,65.3,6.0,8.0,1,,1.0,есть,1985.0,Панельный,,9.0,1.0,Железобетонный,Иной,Открытая с отбором сетевой воды на горячее водоснабжение из тепловой сети,,Центральное,,,,0,,,,,,,,,,,,,,,,,,,,,43.1129672,131.9429308
147,6400000.0,"Владивосток, улица Кирова, 18",2.0,42.3,5.0,4.0,1,,1.0,,1967.0,Панельный,2.многоквартирный,5.0,,Железобетонный,Ленточный,Открытая с отбором сетевой воды на горячее водоснабжение из тепловой сети,,Центральное,,,,0,,,D,,,,,,,,,,,,,,,,,,43.171755000000005,131.91125658139043
148,6600000.0,"Владивосток, улица Героев Варяга, 8",1.0,37.2,8.0,8.0,1,,,есть,1987.0,Панельный,П-55,9.0,1.0,Железобетонный,Ленточный,Открытая с отбором сетевой воды на горячее водоснабжение из тепловой сети,,,,,,0,,,,,,,,,,,,,,,,,,,,,43.16340675,131.93154123765134
149,8500000.0,"Владивосток, улица Адмирала Горшкова, 53",2.0,47.7,6.0,14.0,1,,1.0,,2020.0,Монолитно-кирпичный,,25.0,,Железобетонный,,Центральное,,,,,,0,,,,,,,,,,,,,,,,,,,,,43.16802675,131.9536121
150,11300000.0,"Владивосток, улица Адмирала Горшкова, 40",2.0,53.1,10.0,1.0,1,Свободная продажа,1.0,есть,2011.0,Кирпичный,,10.0,1.0,Железобетонный,Ленточный,Закрытая с приготовлением горячей воды на ЦТП,220.0,,,,,1,,,,,,,,,,,,,,,,,,,,,43.166237699999996,131.9566525294286
151,20300000.0,"Владивосток, Океанский проспект, 101а",,,,,1,,,есть,2005.0,Смешанные,,15.0,1.0,Железобетонный,Иной,Открытая с отбором сетевой воды на горячее водоснабжение из тепловой сети,118.0,,,,,0,,,,,,,,,,,,,,,,,,,,,43.1329437,131.8960137
152,11000000.0,"Владивосток, улица Анны Щетининой, 3",2.0,57.2,14.7,8.0,1,,1.0,есть,2011.0,Монолитный,v-кирпичный,15.0,1.0,Железобетонный,,Центральное,,,,,,1,,,,,2.0,,,,,,,,,,,,,,,,43.159632,131.949777
153,3700000.0,"Владивосток, Русская улица, 67",1.0,23.6,5.0,9.0,0,,1.0,есть,1976.0,Кирпичный,v-кирпичный,9.0,1.0,Железобетонный,Ленточный,,,,,,,1,,,D,,2.0,,,,,,,,,,,,,,,,43.17010435,131.9318341124218
154,9720000.0,"Владивосток, Владикавказская улица, 5",2.0,54.0,9.0,5.0,1,,1.0,,2008.0,Монолитный,,17.0,1.0,Железобетонный,,Центральное,,,,,,0,,,,,,,,,,,,,,,,,,,,,43.11094295,131.94338803756477
155,5550000.0,"Владивосток, Гражданская улица, 18",1.0,33.2,10.0,2.0,1,Свободная продажа,,,2018.0,Железобетон,,6.0,,Монолитный,,Поквартирный котел,,,,,,0,,,,,,,,,,,,,,,,,,,,,43.2501791,132.01360600660942
156,6900000.0,"Владивосток, улица Ладыгина, 11",3.0,67.6,10.0,9.0,1,,1.0,есть,1991.0,Панельный,,10.0,1.0,Железобетонный,Иной,Открытая с отбором сетевой воды на горячее водоснабжение из тепловой сети,,Центральное,,,,1,,,,,1.0,,,,,,,,,,,,,,,,43.1214301,131.9552268715009
157,6750000.0,"Владивосток, Баляева улица, 49",,30.4,10.0,18.0,0,Свободная продажа,1.0,,2023.0,Монолитный,,20.0,,Железобетонный,,,340.0,,,,,1,,2024.0,,,,,,,,,,,,,,,,,,,43.13062735,131.94362671962108
158,6680000.0,"Владивосток, Саратовская улица, 10",1.0,32.7,4.0,6.0,1,,1.0,есть,1978.0,Кирпичный,v-кирпичный,9.0,1.0,Железобетонный,Иной,Открытая с отбором сетевой воды на горячее водоснабжение из тепловой сети,,,,,,0,,,,,,,,,есть,,,,,,,,,,,,43.0930599,131.86549968972236
159,11650000.0,"Владивосток, улица Басаргина, 6Бк",2.0,54.9,8.0,6.0,1,,1.0,,2021.0,Кирпичный,,24.0,,Железобетонный,,Центральное,240.0,,,,,1,,,,,,,,,,,,,,,,,,,,,43.0751226,131.9620425
160,12500000.0,"Владивосток, Русская улица, 91",2.0,55.0,11.9,6.0,1,,1.0,,2021.0,Монолитно-кирпичный,,16.0,,Железобетонный,,Центральное,159.0,,,,,0,,,,,,,,,,,,,,,,,,,,,43.1742117,131.93708025
161,7200000.0,"Владивосток, улица Шепеткова, 40",,,,,1,,,есть,1980.0,Кирпичный,v-кирпичный,9.0,1.0,Железобетонный,Иной,Открытая с отбором сетевой воды на горячее водоснабжение из тепловой сети,,,,,,0,,,,,,,,,,,,,,,,,,,,,43.11602455,131.94085410254743
162,6600000.0,"Владивосток, улица Надибаидзе, 17",1.0,35.8,9.0,6.0,1,Свободная продажа,,есть,1995.0,Панельный,ПП-83,10.0,1.0,Железобетонный,Ленточный,Закрытая с приготовлением горячей воды на ЦТП,,,,,,0,,,,,,,,,,,,,,,,,,,,,43.09752485,131.89319050384688
163,7200000.0,"Владивосток, Светланская улица, 39",,,,,1,,,,1918.0,Кирпичный,,2.0,,Деревянный,,Поквартирный котел,,,,,,0,,,,,,,,,,,,,,,,,,,,,43.1154534,131.8896585
164,4150000.0,"Владивосток, Нижнепортовая улица, 6г",,27.1,6.0,7.0,1,,1.0,,2006.0,Монолитный,,7.0,,Железобетонный,,Центральное,,,,,,1,,,,,,,,,,,,,,,,,,,,,43.0992007,131.8644681
165,7100000.0,"Владивосток, улица Сафонова, 24",2.0,44.3,5.0,8.0,1,,1.0,есть,1977.0,Панельный,111-83,9.0,1.0,Железобетонный,Ленточный,Открытая с отбором сетевой воды на горячее водоснабжение из тепловой сети,,,,,,1,,,,,,,,,,,,,,,,,,,,,43.0936754,131.9514551658026
166,5400000.0,"Владивосток, улица Овчинникова, 8",1.0,31.8,5.0,1.0,1,,,,1960.0,Кирпичный,1-511,5.0,,Железобетонный,Ленточный,Открытая с отбором сетевой воды на горячее водоснабжение из тепловой сети,76.0,Центральное,,,,0,,,,,,,,,,,,,,,,,,,,,43.1506663,131.905046
167,7600000.0,"Владивосток, Бородинская улица, 37",3.0,56.4,6.0,2.0,1,Свободная продажа,,,1963.0,Панельный,,5.0,,Железобетонный,Ленточный,Открытая с отбором сетевой воды на горячее водоснабжение из тепловой сети,,Центральное,Центральное,,,1,,,D,,,"38,8 м2",,,,Больше пяти,,,,,,,,,,,43.167189300000004,131.9294070166692
168,24500000.0,"Владивосток, Некрасовская улица, 53Б",3.0,90.0,10.0,11.0,1,,1.0,есть,2004.0,Кирпичный,,14.0,1.0,Железобетонный,Бетонные столбы,Открытая с отбором сетевой воды на горячее водоснабжение из тепловой сети,,Центральное,,,,1,,,,,2.0,,,,,,,,,,,,,,,,43.1287911,131.9091756390107
169,7950000.0,"Владивосток, улица Шошина, 13",,,,,1,,,есть,1980.0,Панельный,а жилой дом,9.0,1.0,Железобетонный,Ленточный,Открытая с отбором сетевой воды на горячее водоснабжение из тепловой сети,,,,,,1,,,,,,,,,,,,,,,,,,,,,43.152869,131.92333622903288
170,4200000.0,"Владивосток, Чапаева, 16",1.0,23.3,3.0,1.0,1,Свободная продажа,,есть,1976.0,Панельный,"121, панельный жилой дом",9.0,1.0,Железобетонный,Ленточный,,,,,,,0,,,D,,,,,,,,,,,,,,,,,,43.18268175,131.91674462939145
171,8200000.0,"Владивосток, улица Ильичёва, 26",3.0,50.3,,5.0,1,,1.0,есть,1968.0,Кирпичный,II-34,5.0,,Железобетонный,Ленточный,Открытая с отбором сетевой воды на горячее водоснабжение из тепловой сети,,Центральное,,,,0,,,,,,,,,,,,,,,,,,,,,43.1525269,131.9123497805108
172,8000000.0,"Владивосток, Ласточкино Гнездо, Кипарисовая улица, 2",2.0,55.3,11.0,2.0,1,,1.0,есть,1994.0,Панельный,П-3,10.0,1.0,Железобетонный,Ленточный,Открытая с отбором сетевой воды на горячее водоснабжение из тепловой сети,,,,,,0,,,,,,,,,,,,,,,,,,,,,,
173,8000000.0,"Владивосток, Сочинская улица, 3",2.0,50.6,7.0,1.0,1,,1.0,,2016.0,Монолитный,,19.0,1.0,Железобетонный,Иной,Закрытая с приготовлением горячей воды на ЦТП,,Центральное,Центральное,,,0,,,,,,,,,,,,,,,,,,,,,43.0833384,131.9557329380227
174,5700000.0,"Владивосток, Стрелковая улица, 18к",,25.4,8.0,6.0,1,Свободная продажа,,,2023.0,Монолитный,,24.0,,Железобетонный,,,436.0,,,,,0,,,,,,,,,,,,,,,,,,,,,43.1135561,131.9570591
175,10000000.0,"Владивосток, 2",,,,,1,,,,2021.0,Монолитный,,4.0,,Железобетонный,,Центральное,72.0,,,,,1,,,,,,,,,,,,,,,,,,,,,43.254036049999996,132.00916640629424
176,20300000.0,"Владивосток, Инженерный переулок, 14а",2.0,115.0,,2.0,1,,1.0,,2008.0,Монолитный,,8.0,,Железобетонный,,Центральное,,,,,,0,,,,,,,,,,,,,,,,,,,,,43.11451355,131.8783384398115
177,12300000.0,"Владивосток, улица Адмирала Горшкова, 52к",3.0,60.5,,4.0,0,Свободная продажа,,,2023.0,Монолитный,,25.0,,Железобетонный,,,220.0,,,,,0,,,,,,,,нет,нет,,,,,,,,,,,,43.167814449999995,131.96586772546414
178,8000000.0,"Владивосток, Партизанский проспект, 9",3.0,47.4,5.0,4.0,1,,1.0,,1967.0,Панельный,,5.0,,Железобетонный,Ленточный,Открытая с отбором сетевой воды на горячее водоснабжение из тепловой сети,,Центральное,Центральное,Центральное,,1,,,,,,,,,,,,,,,,,,,,,43.125792000000004,131.89514949836342
179,5490000.0,"Владивосток, улица Сафонова, 26",1.0,34.9,,8.0,1,Свободная продажа,1.0,есть,1977.0,Панельный,,9.0,1.0,Железобетонный,Иной,Открытая с отбором сетевой воды на горячее водоснабжение из тепловой сети,,Центральное,,,,0,,,,,1.0,,,,,,,,,,,,,,,,43.092877099999995,131.9514917618974
180,5900000.0,"Владивосток, улица Нейбута, 2ак",1.0,40.0,,4.0,1,Свободная продажа,,,2022.0,Монолитно-кирпичный,,25.0,,Железобетонный,,Центральное,264.0,,,,,1,,,,,,40 м2,"2,7",,,Меньше трех,,,2.0,,,,,,,,43.1039737,131.9605243
181,12800000.0,"Владивосток, улица Леонова, 70",3.0,58.6,9.0,23.0,1,Свободная продажа,,,2019.0,Монолитный,,,,,,,,,,,,0,,,,,,,,,,,,,,,,,,,,,43.08745,131.856284
182,11900000.0,"Владивосток, Океанский проспект, 90",2.0,46.8,1.0,2.0,1,,1.0,есть,1983.0,Кирпичный,v-кирпичный,9.0,1.0,Железобетонный,Ленточный,,415.0,,,,,0,,,,,,,,,,,,,,,,,,,,,43.1318221,131.9004527
183,5200000.0,"Владивосток, Народный проспект, 43к",1.0,28.9,5.0,2.0,1,,1.0,есть,1976.0,Кирпичный,1-446 с,9.0,1.0,Железобетонный,Ленточный,,171.0,,,,,0,,,,,,,,,,,,,,,,,,,,,43.1233426,131.9243123
184,35000000.0,"Владивосток, улица Ялтинская, 7",6.0,212.5,60.0,2.0,0,,1.0,,,Блочный,,4.0,,,,,,,,,,0,,,,,,,,,,,,,,,,,,,,,43.0887734,131.85615486081275
185,6300000.0,"Владивосток, Сахалинская улица, 36",,,,,0,,,есть,1972.0,Панельный,,9.0,1.0,Железобетонный,Иной,Закрытая с приготовлением горячей воды на ЦТП,,Центральное,,,,0,,,,,,,,,,,,,,,,,,,,,43.09258475,131.96560745277435
186,5500000.0,"Владивосток, улица Адмирала Смирнова, 18",1.0,35.7,12.0,6.0,1,,1.0,,2013.0,Смешанные,111-83,10.0,1.0,Железобетонный,Ленточный,Открытая с отбором сетевой воды на горячее водоснабжение из тепловой сети,,Центральное,,,,0,,,,,,,,,,,,,,,,,,,,,43.16414975,131.9605398093242
187,5000000.0,"Владивосток, улица Майора Филипова, 7",,18.9,5.9,1.0,1,Свободная продажа,1.0,,2020.0,Монолитный,,24.0,,Железобетонный,,Центральное,438.0,,,,,1,,,,,,,,,,,,,,,,,,,,,43.1706706,131.9487566
188,10500000.0,"Владивосток, Иртышская улица, 18",2.0,51.5,6.0,11.0,1,Свободная продажа,1.0,есть,1982.0,Кирпичный,II-66,14.0,1.0,Железобетонный,Ленточный,Открытая с отбором сетевой воды на горячее водоснабжение из тепловой сети,,,,,,1,,,,,,,,,,,,,,,,,,,,,43.1616217,131.9228739005013
189,7600000.0,"Владивосток, Русская улица, 89а",2.0,46.4,10.0,1.0,1,,1.0,,2021.0,Монолитный,,16.0,,Железобетонный,,Центральное,176.0,,,,,0,,,,,,,,,,,,,,,,,,,,,43.1740297,131.93618714964612
190,7700000.0,"Владивосток, улица Черняховского, 11",1.0,40.1,9.0,12.0,1,,1.0,,2020.0,Монолитный,,24.0,,Железобетонный,,Центральное,198.0,,,,,1,,,,,,,,,,,,,,,,,,,,,43.1194382,131.9565994
191,21252000.0,"Владивосток, Уткинская улица, 9",2.0,80.9,,4.0,1,,1.0,,2004.0,Кирпичный,,7.0,,,,,,,,,,0,,,,,,,,,есть,,,,,,,,,,,,43.123103,131.88925010536445
192,5950000.0,"Владивосток, улица Калинина, 285",2.0,24.2,5.0,9.0,1,,1.0,есть,1968.0,Кирпичный,v-кирпичный,9.0,1.0,Железобетонный,Ленточный,Закрытая с приготовлением горячей воды на ЦТП,,,,,,0,,,,,,,,,,,,,,,,,,,,,43.09390695,131.9079955869612
193,12300000.0,"Владивосток, улица Адмирала Горшкова, 52к",3.0,60.2,20.0,4.0,1,Свободная продажа,1.0,,2023.0,Монолитный,,25.0,,Железобетонный,,,220.0,,,,,0,,,,,,,,,,,,,,,,,,,,,43.167814449999995,131.96586772546414
194,8550000.0,"Владивосток, улица Невельского, 15",2.0,50.0,8.0,8.0,1,,1.0,есть,1986.0,Панельный,,9.0,1.0,Железобетонный,Иной,Открытая с отбором сетевой воды на горячее водоснабжение из тепловой сети,,Центральное,,,,0,,,,,,,,,,,,,,,,,,,,,43.11091785,131.9517732925155
195,10800000.0,"Владивосток, Светланская улица, 88",2.0,52.5,9.0,3.0,1,,1.0,,1936.0,Блочный,"i, блочный",5.0,,,,,,,,,,0,,,,,,,,,,,,,,,,,,,,,43.11269045,131.91374174999999
196,20000000.0,"Владивосток, улица Леонова, 66",3.0,78.0,8.0,6.0,1,Свободная продажа,1.0,,2011.0,Монолитный,"14/14, индивидуальный",24.0,1.0,Железобетонный,Бетонные столбы,,,Центральное,,,,1,,,C,,,,,,,,,,,,,,,,,,43.087293,131.8559007
197,4200000.0,"Владивосток, проспект Красного Знамени, 51",1.0,14.0,3.0,1.0,1,,,есть,1974.0,Панельный,1-464,9.0,1.0,Железобетонный,,Открытая с отбором сетевой воды на горячее водоснабжение из тепловой сети,,Центральное,,,,0,,,,,,,,,,,,,,,,,,,,,43.127974949999995,131.90601455803994
198,5500000.0,"Владивосток, проспект 100",1.0,32.2,6.0,4.0,0,Свободная продажа,1.0,,1961.0,Кирпичный,1-511,5.0,,Железобетонный,Ленточный,Открытая с отбором сетевой воды на горячее водоснабжение из тепловой сети,,Центральное,Центральное,,,1,,,,,,17 м2,2.5,,,,,,,,,,,,,,43.1552073,131.911553
199,9500000.0,"Приморскийкрай, Владивосток, Советскийрайон, микрорайон Снеговая Падь, улица Адмирала Горшкова, 30",2.0,68.3,,2.0,1,,1.0,,2010.0,Блочный,а монолитный,17.0,1.0,Железобетонный,Ленточный,Открытая с отбором сетевой воды на горячее водоснабжение из тепловой сети,,Центральное,,,,0,,,,,2.0,,,есть,,,,,,,,,,,,,,
200,2680000.0,"Владивосток, Снеговая улица, 123",2.0,17.1,,7.0,1,,,есть,1987.0,Панельный,,10.0,1.0,Железобетонный,Ленточный,Открытая с отбором сетевой воды на горячее водоснабжение из тепловой сети,,,,,,0,,,C,,,,,,,,,,,,,,,,,,43.137554550000004,131.97642540364635
201,6690000.0,"Владивосток, улица Вострецова, 11",2.0,40.0,,4.0,1,Свободная продажа,,,1961.0,Кирпичный,II-03,4.0,,Железобетонный,Ленточный,Открытая с отбором сетевой воды на горячее водоснабжение из тепловой сети,,Центральное,Центральное,,,1,,,,,,,,,,От трех до пяти,во двор,,1.0,,,,,,,,43.14830935,131.91596742401663
202,4400000.0,"Владивосток, улица Нейбута, 2ак",1.0,28.2,6.0,2.0,0,Свободная продажа,1.0,,2022.0,Монолитный,,25.0,,Железобетонный,,,,,,,,0,,,,,,,,,,,,,,,,,,,,,43.1247669,131.9573481
203,11230000.0,"Владивосток, Зейская улица, 14",3.0,96.0,10.0,6.0,1,,,есть,2018.0,Монолитно-кирпичный,,19.0,,Железобетонный,,Центральное,,,,,,0,,,,,,,,,,,,,,,,,,,,,43.115926349999995,131.93379589395016
204,5100000.0,"Владивосток, улица Часовитина, 7",,,,,1,,,есть,1990.0,Панельный,,9.0,1.0,Железобетонный,Свайный,Открытая с отбором сетевой воды на горячее водоснабжение из тепловой сети,,,,,,0,,,C,,,,,,,,,,,,,,,,,,43.09502425,131.9413094056416
205,6350000.0,"Владивосток, улица Кирова, 10",2.0,44.0,6.0,2.0,1,Свободная продажа,1.0,,1967.0,Панельный,,5.0,,Железобетонный,Сплошной,Открытая с отбором сетевой воды на горячее водоснабжение из тепловой сети,,Центральное,,Центральное,,0,,,,,,28 м2,,,,,на улицу,Приточно-вытяжная,,,,,,,,,43.169985499999996,131.91181406369202
206,12500000.0,"Владивосток, 4",2.0,73.9,,3.0,1,,1.0,,,Кирпичный,,5.0,,,,,,,,,,0,,,,,,,,,,,,,,,,,,,,,43.47001965,131.93085196457952
207,7700000.0,"Владивосток, улица Мусоргского, 72",1.0,44.6,14.0,12.0,0,,1.0,,2023.0,Монолитный,,24.0,1.0,,,,,,,,,0,,,,,,,,,,,,,,,,,,,,,43.2013578,131.9473328
208,11900000.0,"Владивосток, Русская улица, 11а",2.0,52.0,19.0,5.0,1,,1.0,есть,2000.0,Панельный,2.многоквартирный,10.0,1.0,Железобетонный,Ленточный,,,,,,,0,,,D,,,,,,,,,,,,,,,,,,43.169216399999996,131.90909843620412
209,28000000.0,"Владивосток, Таун Парк, улица Мусоргского, 29Б",4.0,153.2,,2.0,1,,1.0,,2010.0,Монолитный,,3.0,,,,,,,,,,1,,,,,,,,,,,,,,,,,,,,,,
210,8500000.0,"Владивосток, Русская улица, 89",1.0,33.9,10.0,6.0,1,,,,2020.0,Монолитный,,18.0,,Железобетонный,,Центральное,157.0,,,,,0,,,,,,,,,,,,,,,,,,,,,43.1747299,131.93686554964611
211,6000000.0,"Владивосток, проспект 100",1.0,31.4,5.0,12.0,0,,1.0,,2023.0,Монолитный,,26.0,,Железобетонный,,,450.0,,,,,1,,,,,,,,,,,,,,,,,,,,,43.1552073,131.911553
212,10000000.0,"Владивосток, Русская улица, 57л",3.0,65.1,12.0,6.0,1,Свободная продажа,1.0,есть,2008.0,Панельный,,10.0,,Железобетонный,,Центральное,,,,,,0,,,,,,,,,,,,,,,,,,,,,43.1779056,131.9293156292669
213,6500000.0,"Владивосток, улица Талалихина, 1",1.0,36.4,8.0,6.0,1,Свободная продажа,1.0,есть,1971.0,Кирпичный,v-кирпичный,9.0,1.0,Железобетонный,Ленточный,Открытая с отбором сетевой воды на горячее водоснабжение из тепловой сети,,,,,,1,,,,,1.0,,,,,,,,,,,,,,,,43.099222850000004,131.9466431107615
214,17000000.0,"Владивосток, улица Калинина, 11а",3.0,70.5,10.0,11.0,1,,1.0,,2020.0,Монолитный,,25.0,,Железобетонный,,Центральное,,,,,,1,,,,,,,,,,,,,,,,,,,,,43.102468,131.9273322461416
215,6900000.0,"Владивосток, улица Нейбута, 8",1.0,37.8,17.0,16.0,1,,1.0,,2018.0,Монолитный,,25.0,,Железобетонный,,Центральное,,,,,,1,,,,,,,,,,,,,,,,,,,,,43.102845200000004,131.96064051101578
216,17500000.0,"Владивосток, улица Крыгина, 105",3.0,92.7,16.8,8.0,0,,1.0,,,,,,,,,,,,,,,1,,,,,,,,,,,,,,,,,,,,,43.082597449999994,131.85346112369166
217,9100000.0,"Владивосток, Шилкинская улица, 5",1.0,42.1,12.0,9.0,1,,1.0,,2000.0,Кирпичный,v-кирпичный,10.0,1.0,Железобетонный,,Открытая с отбором сетевой воды на горячее водоснабжение из тепловой сети,,Центральное,,,,1,,,,,1.0,,,,,,,,,,,,,,,,43.1193103,131.92273786944446
218,12950000.0,"Владивосток, улица Калинина, 11а",2.0,66.6,7.5,20.0,1,,1.0,,2020.0,Монолитный,,25.0,,Железобетонный,,Центральное,,,,,,0,,,,,,,,,,,,,,,,,,,,,43.102468,131.9273322461416
219,13800000.0,"Владивосток, Фастовская улица, 50",1.0,59.0,25.0,6.0,1,Свободная продажа,,,2022.0,Монолитный,,23.0,,Железобетонный,,Центральное,88.0,,,,,0,,,,,,20 м2,"2,7",,,От трех до пяти,,,,,,,,,,,43.10258385,131.8937514624775
220,7850000.0,"Владивосток, Русская улица, 61д",3.0,72.3,,10.0,1,Свободная продажа,1.0,,2021.0,Панельный,,14.0,,Железобетонный,,Центральное,288.0,,,,,0,есть,,,,,,,,,,на улицу,,,,,,,Раздельный,10.0,,43.1783458,131.93407743990016
221,14000000.0,"Владивосток, улица Невельского, 5",3.0,103.5,15.0,22.0,0,,1.0,,2022.0,Монолитный,,23.0,,Железобетонный,,Центральное,,,,,,0,,,,,,,,,,,,,,,,,,,,,43.11345495,131.94425075811643
222,8400000.0,"Владивосток, улица Калинина, 115а",1.0,40.6,10.0,10.0,1,Свободная продажа,1.0,,2009.0,Железобетон,v-кирпичный,14.0,1.0,Монолитный,,Центральное,,Центральное,Автономная котельная (крышная встроенно-пристроенная),,,1,,,,,,,,,,,,,,,,,,,,,43.092567149999994,131.88529560082083
223,9800000.0,"Владивосток, Океанский проспект, 70",2.0,48.1,4.0,3.0,1,,1.0,,1969.0,Панельный,,5.0,,Железобетонный,Ленточный,Открытая с отбором сетевой воды на горячее водоснабжение из тепловой сети,89.0,Центральное,Центральное,,,0,,,,,,,,,,,,,,,,,,,,,43.13093765,131.8965062832258
224,1600000.0,"Владивосток, Вязовая улица, 8",,12.0,3.0,5.0,1,Свободная продажа,,,1976.0,Кирпичный,,5.0,,Железобетонный,,Открытая с отбором сетевой воды на горячее водоснабжение из тепловой сети,,Центральное,,Центральное,Центральное,0,,,,2.0,,,,,,,,,,,,,,,,,43.09644915,131.92140794491303
225,6150000.0,"Владивосток, Стрелковая улица, 18к",1.0,25.4,5.0,13.0,1,Свободная продажа,,,2023.0,Монолитный,,24.0,,Железобетонный,,,436.0,,,,,0,,,,,,,,,,,,,,,,,,,,,43.1082278,131.9524003
226,13000000.0,"Владивосток, Партизанский проспект, 40",3.0,53.8,5.0,2.0,1,,,,1951.0,Кирпичный,"i, блочный",4.0,,Железобетонный,Ленточный,Открытая с отбором сетевой воды на горячее водоснабжение из тепловой сети,,Центральное,Центральное,,,0,,,,,,,,,,,,,,,,,,,,,43.1271367,131.90086419066114
227,7500000.0,"Владивосток, проспект 100",2.0,45.5,,2.0,0,,1.0,,1964.0,Панельный,,3.0,,Железобетонный,,Открытая с отбором сетевой воды на горячее водоснабжение из тепловой сети,,Центральное,Центральное,Центральное,Центральное,0,,,,,,,,,,,,,,,,,,,,,43.1552073,131.911553
228,7000000.0,"Владивосток, Светланская улица, 209",2.0,53.7,,4.0,0,,1.0,,1976.0,Кирпичный,,6.0,,Железобетонный,,Открытая с отбором сетевой воды на горячее водоснабжение из тепловой сети,,Центральное,Центральное,Центральное,Центральное,1,,,,,,,,,,,,,,,,,,,,,43.1129966,131.9337469
229,5900000.0,"Владивосток, Седанка Хиллс, улица Маковского, 126к",1.0,30.2,9.0,3.0,0,,,,2024.0,Монолитный,,4.0,,Железобетонный,,Поквартирный котел,,,,,,0,,,,,,,,,,,,,,,,,,,,,,
230,5500000.0,"Владивосток, улица Адмирала Кузнецова, 66",2.0,44.1,,1.0,1,,1.0,,1963.0,Кирпичный,v-кирпичный,5.0,,Железобетонный,Иной,Открытая с отбором сетевой воды на горячее водоснабжение из тепловой сети,,Центральное,Центральное,,,0,,,,,,,,,,,,,,,,,,,,,43.1197069,131.94523827802664
231,7210000.0,"Владивосток, Ласточкино Гнездо, Кипарисовая улица, 2",,,,,0,,,есть,1994.0,Панельный,П-3,10.0,1.0,Железобетонный,Ленточный,Открытая с отбором сетевой воды на горячее водоснабжение из тепловой сети,,,,,,0,,,,,,,,,,,,,,,,,,,,,,
232,9170000.0,"Владивосток, Русская улица, 57н",3.0,66.9,9.0,4.0,1,Свободная продажа,1.0,,2009.0,Панельный,1-панельный,10.0,1.0,Железобетонный,Иной,,,Центральное,Центральное,,,0,,,,,,,,,,,,,,,,,,,,,43.177755149999996,131.93050720932115
233,10500000.0,"Владивосток, улица Нейбута, 2ак",2.0,39.8,15.2,23.0,1,,1.0,,2023.0,Монолитно-кирпичный,,25.0,,Железобетонный,,Центральное,275.0,,,,,0,,,,,,,,,,,,,,,,,,,,,43.1247669,131.9573481
234,18000000.0,"Владивосток, Некрасовская улица, 90",3.0,71.8,10.0,10.0,1,Свободная продажа,,,2011.0,Монолитный,,21.0,1.0,Железобетонный,,Закрытая с приготовлением горячей воды на ЦТП,,Центральное,Центральное,,,0,,,,,,,,,,,,Приточно-вытяжная,,,,,,,,,43.1294745,131.9119216
235,15700000.0,"Владивосток, Союзная улица, 17",4.0,96.7,,4.0,1,,1.0,,2000.0,Панельный,ПП-83,10.0,1.0,Железобетонный,Ленточный,Закрытая с приготовлением горячей воды на ЦТП,,Центральное,,,,0,,,,,,,,,,,,,,,,,,,,,43.1334727,131.8933378980941
236,9900000.0,"Владивосток, Пологая улица, 30",2.0,30.8,1.0,5.0,1,,,,1961.0,Кирпичный,,5.0,,Железобетонный,Ленточный,Закрытая с приготовлением горячей воды на ЦТП,41.0,Центральное,Центральное,,,0,,,,,,,,,,,,,,,,,,,,,43.1216784,131.88264924718834
237,15000000.0,"Владивосток, Монтажная улица, 13",4.0,106.2,11.3,6.0,1,Альтернатива,1.0,есть,2001.0,Кирпичный,,13.0,1.0,Железобетонный,Ленточный,центральное,210.0,,,,,0,,,,,,,,,,,,,,,,,,,,,43.0952616,131.9625556002723
238,10000000.0,"Владивосток, проспект Красного Знамени, 139",1.0,46.0,15.0,14.0,1,Свободная продажа,1.0,,2022.0,Монолитный,,25.0,,Железобетонный,,Поквартирный котел,120.0,,,,,1,,,,,,,,,,,,,,,,,,,,,43.125868249999996,131.93411762227737
239,9500000.0,"Владивосток, Южно-Уральская улица, 10а",1.0,38.8,12.0,5.0,1,,1.0,,2009.0,Монолитный,,15.0,1.0,Железобетонный,Свайный,Закрытая с приготовлением горячей воды на ИТП,,Центральное,,,,1,,,A,,,,,,,,,,,,,,,,,,43.1530927,131.9144007254032
240,10500000.0,"Владивосток, Партизанский проспект, 28а",4.0,73.7,,5.0,1,,1.0,есть,1972.0,Кирпичный,,6.0,,Железобетонный,Ленточный,Открытая с отбором сетевой воды на горячее водоснабжение из тепловой сети,,Центральное,,,,0,,,C,,,,,,,,,,,,,,,,,,43.12674165,131.89898438535536
241,17000000.0,"Владивосток, Авроровская улица, 17",,,,,0,,,,2007.0,Смешанные,"14/14, индивидуальный",17.0,1.0,Железобетонный,Свайный,Закрытая с приготовлением горячей воды на ЦТП,,Центральное,,,,1,,,,,,,,,,,,,,,,,,,,,43.127353,131.887167
242,12200000.0,"Владивосток, Эко-Квартал, Русская улица, 57цк",3.0,66.1,17.0,2.0,1,Свободная продажа,1.0,,2022.0,Панельный,,9.0,,Железобетонный,,Центральное,,,,,,0,,,,,,,,,,,,,,,,,,,,,,
243,12300000.0,"Владивосток, проспект 100",2.0,50.5,7.0,2.0,1,Свободная продажа,1.0,,2019.0,Монолитный,,25.0,,Железобетонный,,Центральное,,,,,,0,,,,1.0,,,,,,,,,,,,,,,,,43.1552073,131.911553
244,4300000.0,"Владивосток, Русская улица, 59",1.0,22.6,4.0,4.0,1,,,есть,1977.0,Панельный,,9.0,1.0,Железобетонный,Ленточный,Открытая с отбором сетевой воды на горячее водоснабжение из тепловой сети,,,,,,0,,,D,,1.0,,,,,,,,,,,,,,,,43.1694731,131.92512438450237
245,4000000.0,"Владивосток, проспект 100",,17.8,5.0,15.0,0,,1.0,,2023.0,Монолитный,,26.0,,Железобетонный,,,450.0,,,,,1,,,,,,,,,,,,,,,,,,,,,43.1552073,131.911553
246,8200000.0,"Владивосток, Вокзальная улица, 1",2.0,44.1,6.0,3.0,1,,1.0,,,Панельный,,5.0,,,,,,,,,,0,,,,,,,,,,,,,,,,,,,,,43.136469250000005,131.90191069994407
247,13200000.0,"Владивосток, Русская улица, 95",3.0,53.0,10.0,14.0,1,,1.0,,2022.0,Монолитный,,25.0,,Железобетонный,,,,,,,,0,,,,,,,,,,,,,,,,,,,,,43.17579885,131.94006015
248,8500000.0,"Владивосток, Монтажная улица, 13",,,,,1,,,есть,2001.0,Кирпичный,,13.0,1.0,Железобетонный,Ленточный,центральное,210.0,,,,,0,,,,,,,,,,,,,,,,,,,,,43.0952616,131.9625556002723
249,10000000.0,"Владивосток, Океанский проспект, 140",2.0,46.0,6.0,9.0,1,,1.0,есть,1981.0,Панельный,1-468,9.0,1.0,Железобетонный,Ленточный,Открытая с отбором сетевой воды на горячее водоснабжение из тепловой сети,,,,,,0,,,,,,,,,,,,,,,,,,,,,43.132885,131.9089821
250,4000000.0,"Владивосток, Луговая улица, 68",,,,,0,,,есть,1981.0,Панельный,П-55,9.0,1.0,Железобетонный,Ленточный,Открытая с отбором сетевой воды на горячее водоснабжение из тепловой сети,,,,,,1,,,,,,,,,,,,,,,,,,,,,43.13282355,131.94753630881388
251,16900000.0,"Владивосток, улица Уборевича, 10Б",2.0,61.1,,5.0,1,,1.0,,1917.0,Кирпичный,v-кирпичный,5.0,,Смешанный,Иной,Открытая с отбором сетевой воды на горячее водоснабжение из тепловой сети,38.0,Центральное,,,,0,,,,,,,,,,,,,,,,,,,,,43.117296,131.8891708
252,8499999.0,"Владивосток, Сочинская улица, 5",1.0,40.0,,9.0,1,Свободная продажа,,,2015.0,Монолитный,а монолитный,11.0,1.0,Железобетонный,Свайный,Закрытая с приготовлением горячей воды на ЦТП,,,,,,0,,,A,,,"37,8 м2",,нет,нет,,,,,,,,,,,,43.0827385,131.95651397676653
253,8980000.0,"Владивосток, Главная улица, 35г",3.0,75.4,,1.0,0,Свободная продажа,,,2023.0,Монолитный,,4.0,,Железобетонный,,Центральное,43.0,,,,,0,,,,,,"62,4 м2","2,8",,,,,,,нет,нет,нет,,,,,43.250939349999996,132.0257714252688
254,6800000.0,"Владивосток, Русская улица, 95",,,,,1,,,,2022.0,Монолитный,,25.0,,Железобетонный,,,,,,,,1,,,,,,,,,,,,,,,,,,,,,43.17579885,131.94006015
255,4800000.0,"Приморскийкрай, Владивосток, улица Шепеткова, 37",1.0,32.8,6.0,2.0,1,Свободная продажа,1.0,есть,1970.0,Кирпичный,II-66,9.0,1.0,Железобетонный,Ленточный,,54.0,,,,,1,,,,,,,,,,,,,,,,,,,,,,
256,11500000.0,"Владивосток, Иртышская улица, 32",,,,,1,,,есть,1977.0,Панельный,121. многоквартирный дом,9.0,1.0,Железобетонный,Ленточный,,,,,,,0,,,D,,,,,,,,,,,,,,,,,,43.16265165,131.9269158032758
257,9200000.0,"Владивосток, Океанский проспект, 125",3.0,56.5,7.0,6.0,1,Свободная продажа,1.0,есть,1978.0,Кирпичный,II-66,9.0,1.0,Железобетонный,Ленточный,Открытая с отбором сетевой воды на горячее водоснабжение из тепловой сети,,,,,,1,,,,,,,,,,,,,,,,,,,,,43.13460295,131.90232218795654
258,4000000.0,"Владивосток, Некрасовская улица, 52",1.0,16.9,5.0,2.0,1,,,есть,1975.0,Панельный,1-464,9.0,1.0,Железобетонный,Ленточный,Открытая с отбором сетевой воды на горячее водоснабжение из тепловой сети,,,,,,0,,,,,,,,,,,,,,,,,,,,,43.1225647,131.9078475
259,7300000.0,"Владивосток, улица Сабанеева, 19",3.0,54.1,9.0,2.0,1,,1.0,есть,1984.0,Панельный,1605-12,12.0,1.0,Железобетонный,Ленточный,Открытая с отбором сетевой воды на горячее водоснабжение из тепловой сети,,,,,,1,,,,,,,,,,,,,,,,,,,,,43.13106995,131.9493161
260,7250000.0,"Владивосток, улица Адмирала Кузнецова, 45",3.0,53.4,8.0,9.0,1,,1.0,есть,1982.0,Панельный,,12.0,1.0,Железобетонный,Иной,Открытая с отбором сетевой воды на горячее водоснабжение из тепловой сети,,Центральное,,,,0,,,,,,,,,,,,,,,,,,,,,43.122783549999994,131.9543201533229
261,6500000.0,"Владивосток, улица Борисенко, 108",1.0,32.3,6.0,5.0,1,,1.0,есть,1981.0,Панельный,,12.0,1.0,Железобетонный,Иной,Закрытая с приготовлением горячей воды на ЦТП,,Центральное,,,,0,,,,,,,,,,,,,,,,,,,,,43.0920712,131.96195710297928
262,14800000.0,"Владивосток, Ласточкино Гнездо, Кипарисовая улица, 2",4.0,118.8,13.9,7.0,1,,1.0,есть,1994.0,Панельный,П-3,10.0,1.0,Железобетонный,Ленточный,Открытая с отбором сетевой воды на горячее водоснабжение из тепловой сети,,,,,,0,,,,,,,,,,,,,,,,,,,,,,
263,6350000.0,"Владивосток, Добровольского улица, 5а",2.0,46.4,5.0,9.0,1,,1.0,есть,1972.0,Панельный,,9.0,1.0,Железобетонный,Иной,Открытая с отбором сетевой воды на горячее водоснабжение из тепловой сети,,Центральное,,,,1,,,,,,,,,,,,,,,,,,,,,43.0928784,131.9744736
264,7400000.0,"Владивосток, Связи улица, 22",4.0,63.1,6.8,7.0,1,,1.0,есть,1970.0,Панельный,81,9.0,1.0,Железобетонный,Ленточный,,144.0,,,,,0,,,,,,,,,,,,,,,,,,,,,43.0992394,131.93553133772065
265,9200000.0,"Владивосток, улица Нейбута, 141",2.0,49.8,9.0,6.0,1,Свободная продажа,1.0,,2018.0,Панельный,121,9.0,,Железобетонный,,Центральное,,,,,,1,,,,,,,,,,,,,,,,,,,,,43.11842005,131.96797264705754
266,4300000.0,"Владивосток, Стрелковая улица, 18к",1.0,28.0,,18.0,0,Альтернатива,1.0,,2023.0,Монолитный,,24.0,,Железобетонный,,,436.0,,,,,1,,,,,,,,,,,,,,,,,,,,,43.1082278,131.9524003
267,5000000.0,"Владивосток, улица Сафонова, 7",1.0,38.6,12.0,9.0,0,,1.0,,2021.0,Монолитный,,14.0,,Железобетонный,,,,,,,,0,,,,,,,,,,,,,,,,,,,,,43.097522600000005,131.9493676323773
268,6000000.0,"Владивосток, улица Ладыгина, 9",1.0,36.2,7.0,1.0,1,,1.0,есть,1991.0,Панельный,,9.0,1.0,Железобетонный,Иной,Открытая с отбором сетевой воды на горячее водоснабжение из тепловой сети,,Центральное,,,,1,,,,,,,,,,,,,,,,,,,,,43.12204285,131.95427471534148
269,12450000.0,"Владивосток, улица Крыгина, 40",3.0,78.8,,8.0,1,,1.0,,2011.0,Кирпичный,"1-335, многоквартирный жилой дом",15.0,,Железобетонный,,Центральное,,,,,,1,,,,,,,,,,,,,,,,,,,,,43.0901969,131.8597904
270,7550000.0,"Владивосток, Берёзовая улица, 7",3.0,54.4,6.0,3.0,1,,1.0,,1961.0,Кирпичный,v-кирпичный,5.0,,Железобетонный,Ленточный,Закрытая с приготовлением горячей воды на ЦТП,,Центральное,Центральное,,,1,,,,,,,,,,,,,,,,,,,,,43.10392595,131.8951073760442
271,9890000.0,"Владивосток, улица Амурская, 3",2.0,41.1,5.0,4.0,1,,1.0,,1967.0,Панельный,,5.0,,Железобетонный,Ленточный,Открытая с отбором сетевой воды на горячее водоснабжение из тепловой сети,,Центральное,Центральное,Центральное,,1,,,,,,,,,,,,,,,,,,,,,43.13180495,131.88874545222853
272,4000000.0,"Владивосток, Иртышская улица, 48",1.0,20.7,6.0,3.0,1,Свободная продажа,,есть,1973.0,Кирпичный,II-66,9.0,1.0,Железобетонный,Ленточный,,177.0,,,,,0,,,,,,,,,,,,,,,,,,,,,43.162700099999995,131.9300978509137
273,8300000.0,"Владивосток, Русская улица, 95",2.0,47.4,10.0,10.0,0,,,,2022.0,Монолитный,,25.0,,Железобетонный,,,,,,,,0,,,,,,,,,,,,,,,,,,,,,43.17579885,131.94006015
274,8990000.0,"Владивосток, 3",2.0,72.4,,7.0,0,,1.0,,2021.0,Монолитный,,25.0,,Железобетонный,,,,,,,,0,,,,,,,,,,,,,,,,,,,,,43.1049777,131.8791083
275,6500000.0,"Владивосток, улица Гамарника, 23",1.0,32.7,7.0,4.0,1,Свободная продажа,1.0,есть,1975.0,Панельный,П-30,12.0,1.0,Железобетонный,Ленточный,Открытая с отбором сетевой воды на горячее водоснабжение из тепловой сети,,,,,,1,,,,,,,,,,,,,,,,,,,,,43.1583564,131.9198608045338
276,3300000.0,"Владивосток, 2",2.0,30.2,,1.0,0,,,,,Деревянный,,1.0,,,,,,,,,,0,,,,,,,,,,,,,,,,,,,,,43.254036049999996,132.00916640629424
277,9100000.0,"Владивосток, Аллилуева улица, 5",3.0,65.9,8.0,7.0,1,,1.0,есть,1982.0,Панельный,П-43,16.0,1.0,Железобетонный,Ленточный,Открытая с отбором сетевой воды на горячее водоснабжение из тепловой сети,,,,,,1,,,,,,,,,,,,,,,,,,,,,43.1275481,131.9259586207567
278,5100000.0,"Владивосток, улица Майора Филипова, 11к",,19.2,2.0,10.0,1,,1.0,,2022.0,Монолитный,,24.0,,Железобетонный,,Центральное,351.0,,,,,0,,,,,,,,,,,,,,,,,,,,,43.1722675,131.9510112
279,9000000.0,"Владивосток, улица Глинки, 27к",2.0,60.5,,3.0,0,,,,2020.0,Монолитный,,20.0,,Железобетонный,,Центральное,,,,,,0,,,,,,,,,,,,,,,,,,,,,43.2140692,131.94946215572705
280,6450000.0,"Владивосток, Восточный Луч, улица Полковника Фесюна, 20",1.0,21.3,3.0,14.0,1,,,,2023.0,Кирпичный,,25.0,,Железобетонный,,Центральное,311.0,,,,,0,,2024.0,,,,,,,,,,,,,,,,,,,,
281,5500000.0,"Владивосток, Снеговая улица, 79",,,,,1,,,,1916.0,Кирпичный,,2.0,,Смешанный,Ленточный,Открытая с отбором сетевой воды на горячее водоснабжение из тепловой сети,,Центральное,Центральное,Центральное,,0,,,,,,,,,,,,,,,,,,,,,43.137921399999996,131.9679549310849
282,8000000.0,"Владивосток, улица Громова, 12",2.0,50.0,,7.0,1,Свободная продажа,,есть,1986.0,Панельный,,9.0,1.0,Железобетонный,Иной,Открытая с отбором сетевой воды на горячее водоснабжение из тепловой сети,,Центральное,,,,0,,,,,,28 м2,,,,Больше пяти,,,1.0,,,,,,,,43.1091174,131.94548108123985
283,10500000.0,"Владивосток, улица Кирова, 68",,,,,0,,,есть,1977.0,Панельный,,9.0,1.0,Железобетонный,Ленточный,,152.0,,,,,0,,,D,,,,,,,,,,,,,,,,,,43.1815604,131.9115343086159
284,6770000.0,"Владивосток, Добровольского улица, 17",2.0,46.8,7.2,3.0,1,Свободная продажа,1.0,,1972.0,Панельный,1-панельный,5.0,,Железобетонный,Ленточный,Закрытая с приготовлением горячей воды на ЦТП,63.0,Центральное,,,,0,,,,,,,,,,,,,,,,,,,,,43.0930836,131.97906404052986
285,25000000.0,"Владивосток, Некрасовский переулок, 24",3.0,84.1,9.0,10.0,1,,1.0,есть,2011.0,Блочный,,21.0,1.0,Железобетонный,,Закрытая с приготовлением горячей воды на ЦТП,,Центральное,,,,1,,,B+,,,,,,,,,,,,,,,,,,43.1183359,131.89633199117074
286,9500000.0,"Владивосток, улица Черняховского, 9",,,,,0,,,,2018.0,Железобетон,,17.0,,Монолитный,,Центральное,,,,,,1,,,,,,,,,,,,,,,,,,,,,43.1211552,131.9563553
287,11000000.0,"Владивосток, улица Леонова, 54к",2.0,47.0,3.1,6.0,0,,1.0,,,Монолитный,,7.0,,,,,,,,,,1,,,,,,,,,,,,,,,,,,,,,43.0862091,131.8549304
288,7000000.0,"Владивосток, улица Вострецова, 15",,30.0,6.5,5.0,1,,1.0,,1964.0,Кирпичный,II-03,5.0,,Железобетонный,Ленточный,Открытая с отбором сетевой воды на горячее водоснабжение из тепловой сети,,Центральное,Центральное,,,1,,,,,,,,,,,,,,,,,,,,,43.147927949999996,131.91677860094728
289,5150000.0,"Владивосток, Бородинская улица, 15",1.0,30.7,5.0,4.0,1,,1.0,,1963.0,Панельный,,5.0,,Железобетонный,Ленточный,Открытая с отбором сетевой воды на горячее водоснабжение из тепловой сети,,Центральное,Центральное,,,0,,,D,,,,,,,,,,,,,,,,,,43.1653868,131.91956112701487
290,4500000.0,"Владивосток, улица Сафонова, 7",1.0,38.8,10.0,11.0,0,,1.0,,2021.0,Монолитный,,14.0,,Железобетонный,,,,,,,,0,,,,,,,,,,,,,,,,,,,,,43.097522600000005,131.9493676323773
291,5900000.0,"Владивосток, улица Сафонова, 7",,,,,0,,,,2021.0,Монолитный,,14.0,,Железобетонный,,,,,,,,1,,,,,,,,,,,,,,,,,,,,,43.097522600000005,131.9493676323773
292,29000000.0,"Владивосток, Металлистов улица, 5",3.0,111.9,,17.0,1,Свободная продажа,,,2010.0,Кирпичный,"14/14, индивидуальный",21.0,1.0,Железобетонный,,Закрытая с приготовлением горячей воды на ЦТП,,Центральное,,Центральное,,0,,,,,,,,,,Больше пяти,на улицу,,1.0,,,,,,,,43.11591745,131.91289706248307
293,8790000.0,"Владивосток, проспект Красного Знамени, 99",3.0,62.9,5.0,3.0,1,,1.0,,1971.0,Панельный,П-30,5.0,,Железобетонный,Ленточный,Открытая с отбором сетевой воды на горячее водоснабжение из тепловой сети,,Центральное,Центральное,,,1,,,,,,,,,,,,,,,,,,,,,43.1277772,131.91501676205553
294,5000000.0,"Владивосток, улица Успенского, 18",1.0,31.6,6.0,1.0,1,,,,,,,,,,,,,,,,,0,,,,,,,,,,,,,,,,,,,,,43.2329241,132.01266342072051
295,12000000.0,"Владивосток, улица Калинина, 115а",2.0,54.5,10.0,4.0,1,,1.0,,2009.0,Железобетон,v-кирпичный,14.0,1.0,Монолитный,,Центральное,,Центральное,Автономная котельная (крышная встроенно-пристроенная),,,1,,,,,,,,,,,,,,,,,,,,,43.092567149999994,131.88529560082083
296,6600000.0,"Владивосток, Архангельская улица, 23к",,19.4,19.4,7.0,1,,,,2024.0,Панельный,,25.0,,Железобетонный,,,,,,,,0,,,,,,,,,,,,,,,,,,,,,43.08453485,131.9541531329735
297,7500000.0,"Владивосток, Артековская улица, 1а",2.0,54.2,8.4,3.0,1,,1.0,есть,2000.0,Панельный,,9.0,,Железобетонный,,Центральное,,,,,,1,,,,,,,,,,,,,,,,,,,,,43.211331900000005,132.14534139864878
298,3400000.0,"Владивосток, проспект Красного Знамени, 133",1.0,23.0,8.0,4.0,1,,1.0,есть,1981.0,Панельный,,9.0,1.0,Железобетонный,Ленточный,Открытая с отбором сетевой воды на горячее водоснабжение из тепловой сети,,,,,,0,,,C,,,,,,,,,,,,,,,,,,43.12320005,131.93459742018814
299,6800000.0,"Владивосток, улица Нейбута, 2ак",2.0,52.6,10.0,13.0,0,,1.0,,2022.0,Монолитно-кирпичный,,25.0,,Железобетонный,,Центральное,264.0,,,,,1,,,,,,,,,,,,,,,,,,,,,43.1247669,131.9573481
300,8880000.0,"Владивосток, Восточный Луч, улица Полковника Фесюна, 22",2.0,36.2,10.0,18.0,1,,1.0,,2023.0,Монолитный,,25.0,,Железобетонный,,Центральное,311.0,,,,,0,,,,,,,,,,,,,,,,,,,,,,
301,10781000.0,"Владивосток, улица Адмирала Горшкова, 24",3.0,85.1,10.0,8.0,1,,1.0,есть,2011.0,Кирпичный,,24.0,1.0,Иное,Иной,Закрытая с приготовлением горячей воды на ЦТП,,Центральное,,,,1,,,,,,,,,,,,,,,,,,,,,43.16516795,131.94830943431475
302,12300000.0,"Владивосток, Брусничная улица, 3",3.0,59.0,10.0,2.0,1,Свободная продажа,1.0,,2020.0,Монолитный,,4.0,,Железобетонный,,Центральное,48.0,,,,,1,,,,,,,,,,,,,,,,,,,,,43.2317669,132.0288313
303,8000000.0,"Владивосток, Хабаровская улица, 10а",2.0,42.6,6.0,1.0,1,,1.0,,1968.0,Панельный,,5.0,,Железобетонный,Ленточный,Открытая с отбором сетевой воды на горячее водоснабжение из тепловой сети,,Центральное,Центральное,Центральное,,1,,,,,,,,,,,,,,,,,,,,,43.133073249999995,131.89154983799213
304,6100000.0,"Владивосток, Магнитогорская улица, 22",1.0,33.0,8.0,8.0,1,,1.0,есть,1975.0,Кирпичный,36 индекс,9.0,1.0,Железобетонный,Ленточный,,,,,,,1,,,C,,,,,,,,,,,,,,,,,,43.1762261,131.91177839962188
305,5400000.0,"Владивосток, улица Сафонова, 7",2.0,44.4,8.0,9.0,0,,1.0,,2021.0,Монолитный,,14.0,,Железобетонный,,,,,,,,1,,,,,,,,,,,,,,,,,,,,,43.097522600000005,131.9493676323773
306,9300000.0,"Владивосток, улица Кирова, 68",4.0,65.9,6.0,4.0,1,,1.0,есть,1977.0,Панельный,,9.0,1.0,Железобетонный,Ленточный,,152.0,,,,,1,,,D,,,,,,,,,,,,,,,,,,43.1815604,131.9115343086159
307,7700000.0,"Владивосток, Адмиралтейский, улица Анны Щетининой, 14",1.0,33.0,5.0,15.0,1,Свободная продажа,1.0,,2023.0,Монолитно-кирпичный,,25.0,1.0,Железобетонный,,Центральное,308.0,,,,,0,есть,,,,,,,,,,,,,,,,есть,,,,,
308,15000000.0,"Владивосток, Главная улица, 62Б",2.0,61.9,20.0,2.0,1,,1.0,,,,,,,,,,,,,,,1,,,,,,,,,,,,,,,,,,,,,43.25197295,132.02524522510828
309,5500000.0,"Владивосток, проспект 100",1.0,28.2,6.0,9.0,0,Свободная продажа,1.0,,2023.0,Монолитный,,26.0,,Железобетонный,,,450.0,,,,,1,,,,,,,,,,,,,,,,,,,,,43.1552073,131.911553
310,15000000.0,"Владивосток, улица Калинина, 11а",2.0,70.5,18.0,22.0,1,,1.0,,2020.0,Монолитный,,25.0,,Железобетонный,,Центральное,,,,,,1,,,,,,,,,,,,,,,,,,,,,43.102468,131.9273322461416
311,10500000.0,"Владивосток, улица Глинки, 30",3.0,72.0,10.0,7.0,1,,1.0,есть,2012.0,Кирпичный,v-кирпичный,14.0,1.0,Железобетонный,Ленточный,,254.0,,,,,0,,,D,,,,,,,,,,,,,,,,,,43.2150671,131.94874704619235
312,7630000.0,"Владивосток, улица Александровича, 48",3.0,63.0,8.0,2.0,0,,1.0,,1985.0,Панельный,,5.0,,Железобетонный,,Центральное,,,,,,1,,,,1.0,,,,,есть,,,,,,,,,,1.0,,43.264202749999995,132.0426170383112
313,12500000.0,"Владивосток, Абрекская улица, 4",4.0,84.1,8.0,1.0,1,Свободная продажа,,,1962.0,Кирпичный,,5.0,,Железобетонный,Ленточный,,,Центральное,Центральное,Центральное,,1,,,,,,64 м2,,,,Больше пяти,,Вытяжная,,,,,,,,,43.1129496,131.9192335
314,8200000.0,"Владивосток, улица Калинина, 257",3.0,62.2,7.0,9.0,1,,1.0,есть,1978.0,Панельный,1-панельный,9.0,1.0,Железобетонный,Ленточный,,,,,,,0,,,C,,,,,,,,,,,,,,,,,,43.0959058,131.89783594423653
315,10400000.0,"Владивосток, проспект Красного Знамени, 137",4.0,79.8,13.0,10.0,1,,1.0,есть,1982.0,Кирпичный,,10.0,1.0,Железобетонный,,Открытая с отбором сетевой воды на горячее водоснабжение из тепловой сети,,Центральное,Центральное,,,0,,,,,,,,,,,,,,,,,,,,,43.124512949999996,131.93338090007418
316,11800000.0,"Владивосток, Лесной Квартал—2",3.0,71.0,,6.0,1,,,,2023.0,Панельный,,10.0,,Железобетонный,,Центральное,,,,,,0,,,,,,,,нет,нет,,,,,,,,,,,,43.17780795,131.93051035148676
317,6000000.0,"Владивосток, Окатовая улица, 11а",1.0,30.1,7.5,5.0,1,,1.0,есть,1979.0,Кирпичный,v-кирпичный,12.0,1.0,Железобетонный,Ленточный,Закрытая с приготовлением горячей воды на ЦТП,,,,,,1,,,,,,,,,,,,,,,,,,,,,43.0964448,131.92043288888385
318,11500000.0,"Владивосток, улица Ульяновская, 8",3.0,59.9,4.0,2.0,1,,1.0,есть,2003.0,Кирпичный,v-кирпичный,14.0,1.0,Железобетонный,Бетонные столбы,,,,,,,0,,,A,,,,,,,,,,,,,,,,,,43.15872105,131.926282140286
319,8500000.0,"Владивосток, улица Гульбиновича, 29к",2.0,51.5,8.0,3.0,1,,1.0,есть,1989.0,Панельный,1-панельный,9.0,1.0,Железобетонный,Ленточный,,,,,,,0,,,C,,,,,,,,,,,,,,,,,,43.0960123,131.9052085
320,10691000.0,"Владивосток, Русская улица, 76",3.0,71.8,9.1,2.0,1,Свободная продажа,,,1974.0,Кирпичный,,5.0,,Железобетонный,Ленточный,Открытая с отбором сетевой воды на горячее водоснабжение из тепловой сети,,Центральное,Центральное,,,0,,,D,,,"49,1 м2",,,,От трех до пяти,,,,,,,,,,,43.168849050000006,131.92736705
321,10950000.0,"Владивосток, Южно-Уральская улица, 5",3.0,73.0,8.5,3.0,1,Альтернатива,,есть,1977.0,Кирпичный,II-66,9.0,1.0,Железобетонный,Ленточный,Открытая с отбором сетевой воды на горячее водоснабжение из тепловой сети,,,,,,0,,,,,,48 м2,,,,Больше пяти,,,,,,,,,,,43.15342665,131.91530090458753
322,6200000.0,"Владивосток, Русская улица, 67",1.0,41.3,9.1,3.0,1,,1.0,есть,1987.0,Кирпичный,,9.0,1.0,Железобетонный,Ленточный,Открытая с отбором сетевой воды на горячее водоснабжение из тепловой сети,,,,,,1,,,D,,,,,,,,,,,,,,,,,,43.17010435,131.9318341124218
323,14300000.0,"Владивосток, улица Авраменко, 2а",2.0,54.6,,5.0,1,Свободная продажа,,есть,2015.0,Монолитный,01-пз индивидуальный проект,21.0,1.0,Железобетонный,Сплошной,Закрытая с приготовлением горячей воды на ЦТП,,,,,,0,,,,,,38 м2,,,,Меньше трех,,,1.0,,,,,,,,43.103454,131.8633353358304
324,8900000.0,"Владивосток, Аллилуева улица, 5",3.0,65.5,10.0,7.0,1,,1.0,есть,1982.0,Панельный,П-43,16.0,1.0,Железобетонный,Ленточный,Открытая с отбором сетевой воды на горячее водоснабжение из тепловой сети,,,,,,0,,,,,,,,,,,,,,,,,,,,,43.1275481,131.9259586207567
325,9200000.0,"Владивосток, Русская улица, 55а",3.0,65.6,7.5,7.0,0,,1.0,есть,1992.0,Панельный,,10.0,1.0,Железобетонный,Ленточный,Закрытая с приготовлением горячей воды на ЦТП,,Центральное,,,,1,,,,,,,,,,,,,,,,,,,,,43.1692661,131.9301474
326,7700000.0,"Владивосток, Иртышская улица, 30",3.0,63.2,10.0,1.0,1,,1.0,,1938.0,Панельный,,2.0,,Деревянный,Сплошной,Открытая с отбором сетевой воды на горячее водоснабжение из тепловой сети,,Центральное,Центральное,Центральное,,1,,,,,,,,,,,,,,,,,,,,,43.16250665,131.9262018004867
327,10150000.0,"Владивосток, улица Суханова, 6г",2.0,41.6,,1.0,0,,1.0,,1972.0,Кирпичный,,9.0,,Железобетонный,,Центральное,,,,,,0,,,,1.0,,,,,,,,,,,,,,,,,43.1170397,131.89102868854215
328,6000000.0,"Владивосток, Находкинская улица, 9дк",2.0,48.2,8.0,3.0,0,,1.0,,,Блочный,,4.0,,,,,,,,,,1,,,,,,,,,,,,,,,,,,,,,,
329,11700000.0,"Владивосток, Ласточкино Гнездо, Кипарисовая улица, 2",2.0,48.3,9.0,3.0,1,,1.0,есть,1994.0,Панельный,П-3,10.0,1.0,Железобетонный,Ленточный,Открытая с отбором сетевой воды на горячее водоснабжение из тепловой сети,,,,,,0,,,,,,,,,,,,,,,,,,,,,,
330,8300000.0,"Владивосток, улица Невельского, 4",2.0,51.0,8.5,1.0,1,Свободная продажа,1.0,,1990.0,Кирпичный,v-кирпичный,12.0,1.0,Железобетонный,,,,,,,,1,,,,5.0,2.0,,,,,,,,,,,,,,,500.0,43.11208365,131.94063197515726
331,6000000.0,"Владивосток, 2",,,,,0,,,,1964.0,Кирпичный,1-528,5.0,,Железобетонный,Ленточный,Закрытая с приготовлением горячей воды на ЦТП,,Центральное,,,,1,,,E,,,,,,,,,,,,,,,,,,43.254036049999996,132.00916640629424
332,5650000.0,"Приморскийкрай, Владивосток, проспект 100",1.0,31.3,7.3,5.0,1,,1.0,,1965.0,Панельный,,5.0,,Железобетонный,Ленточный,Открытая с отбором сетевой воды на горячее водоснабжение из тепловой сети,,Центральное,Центральное,,,0,,,D,,,,,,,,,,,,,,,,,,,
333,8500000.0,"Приморскийкрай, Владивосток, улица Калинина, 279",4.0,61.7,9.0,1.0,1,Свободная продажа,,,1969.0,Кирпичный,v-кирпичный,5.0,,Железобетонный,Сборный,Открытая с отбором сетевой воды на горячее водоснабжение из тепловой сети,,Центральное,Центральное,,,0,,,,,,,,,,,,,,,,,,,,,,
334,6900000.0,"Владивосток, Саратовская улица, 10",2.0,40.5,4.0,1.0,1,,1.0,есть,1978.0,Кирпичный,v-кирпичный,9.0,1.0,Железобетонный,Иной,Открытая с отбором сетевой воды на горячее водоснабжение из тепловой сети,,,,,,0,,,,,,,,,есть,,,,,,,,,,,,43.0930599,131.86549968972236
335,25000000.0,"Владивосток, улица Прапорщика Комарова, 45",3.0,101.9,15.7,9.0,1,,1.0,есть,2012.0,Монолитный,,14.0,1.0,Железобетонный,,Закрытая с приготовлением горячей воды на ЦТП,,Центральное,Центральное,,,0,,,,,,,,,,,,,,,,,,,,,43.1212679,131.893196955779
336,38500000.0,"Владивосток, улица Басаргина, 20а",3.0,129.9,20.0,4.0,1,,1.0,,2012.0,Монолитный,1-панельный,5.0,1.0,Железобетонный,Ленточный,Закрытая с приготовлением горячей воды на ЦТП,,Центральное,,,,0,,,,,,,,,,,,,,,,,,,,,43.0755638,131.9570366917726
337,6000000.0,"Владивосток, Русская улица, 78а",1.0,30.6,8.0,4.0,1,,1.0,,1963.0,Панельный,,5.0,,Железобетонный,Ленточный,Открытая с отбором сетевой воды на горячее водоснабжение из тепловой сети,,Центральное,Центральное,,,0,,,D,,,,,,,,,,,,,,,,,,43.16830495,131.92819022704512
338,17900000.0,"Владивосток, улица Поленова, 9д",3.0,84.6,30.0,3.0,1,,1.0,,,Кирпичный,,3.0,,,,,,,,,,0,,,,,,,,,,,,,,,,,,,,,43.209841499999996,131.96033831830317
339,4950000.0,"Владивосток, Народный проспект, 27а",,,,,0,,,,,Кирпичный,,9.0,,,,,,,,,,0,,,,,,,,,,,,,,,,,,,,,43.1274338,131.91659533252104
340,7050000.0,"Владивосток, улица Леонова, 70",1.0,25.2,4.0,24.0,1,Свободная продажа,1.0,,2019.0,Монолитный,,,,,,,,,,,,0,,,,,,,,,,,,,,,,,,,,,43.08745,131.856284
341,13200000.0,"Владивосток, Брянская улица, 18",2.0,53.8,8.0,2.0,0,,,,2020.0,Монолитный,,25.0,1.0,Железобетонный,,Центральное,266.0,,,,,0,,,,,,,,,,,,,,,,,,,,,43.0985309,131.8985805
342,8000000.0,"Владивосток, Ласточкино Гнездо, Кипарисовая улица, 2а",2.0,46.7,5.0,9.0,1,,,,2018.0,Кирпичный,,15.0,,Железобетонный,,Центральное,,,,,,0,,,,,,,,,,,,,,,,,,,,,,
343,9000000.0,"Владивосток, проспект Красного Знамени, 139",,,,,0,,,,2022.0,Монолитный,,25.0,,Железобетонный,,Поквартирный котел,120.0,,,,,0,,,,,,,,,,,,,,,,,,,,,43.125868249999996,131.93411762227737
344,6990000.0,"Владивосток, улица Адмирала Юмашева, 32",2.0,44.2,5.0,2.0,1,Свободная продажа,,,1962.0,Кирпичный,,5.0,,Железобетонный,Иной,Открытая с отбором сетевой воды на горячее водоснабжение из тепловой сети,88.0,Центральное,Центральное,,,0,,,,,,,,,,,,,,,,,,,,,43.12545935,131.95273558403693
345,14000000.0,"Владивосток, проспект Красного Знамени, 44",,,,,1,,,есть,1985.0,Кирпичный,v-кирпичный,9.0,1.0,Железобетонный,Свайный,Открытая с отбором сетевой воды на горячее водоснабжение из тепловой сети,,,,,,1,,,,,,,,,,,,,,,,,,,,,43.1280932,131.90037530743587
346,6500000.0,"Владивосток, Зелёный Бульвар, улица Зелёный Бульвар, 23",1.0,24.6,2.0,6.0,1,,1.0,,2021.0,Кирпичный,,27.0,,Железобетонный,,Центральное,322.0,,,,,0,,,,,,,,,,,,,,,,,,,,,43.11831995,131.97053359933017
347,4300000.0,"Владивосток, Стрелковая улица, 18к",,24.7,2.0,21.0,0,,1.0,,2023.0,Монолитный,,24.0,,Железобетонный,,,436.0,,,,,1,,,,,,,,,,,,,,,,,,,,,43.1082278,131.9524003
348,10200000.0,"Владивосток, Днепровская улица, 26",3.0,73.0,8.0,4.0,1,,1.0,есть,1980.0,Панельный,1-515-5,9.0,1.0,Железобетонный,Ленточный,Открытая с отбором сетевой воды на горячее водоснабжение из тепловой сети,,,,,,1,,,,,,,,,,,,,,,,,,,,,43.14579415,131.91324103849894
349,29850000.0,"Владивосток, Океанский проспект, 135",3.0,120.0,18.0,6.0,1,Свободная продажа,,есть,2008.0,Кирпичный,v-кирпичный,17.0,1.0,Железобетонный,Иной,,,,,,,1,,,B,,,101 м2,,,,Больше пяти,,,,,,,,,,,43.1335414,131.90410399239602
350,10500000.0,"Владивосток, Пушкинская улица, 18",,,,,1,,,,1958.0,Кирпичный,,3.0,,Смешанный,Бетонные столбы,Открытая с отбором сетевой воды на горячее водоснабжение из тепловой сети,,Центральное,Центральное,Центральное,,0,,,,,,,,,,,,,,,,,,,,,43.116113850000005,131.9032703
351,8300000.0,"Владивосток, Русская улица, 91",2.0,55.0,13.0,16.0,0,,1.0,,2021.0,Монолитно-кирпичный,,16.0,,Железобетонный,,Центральное,159.0,,,,,1,,,,,,,,,,,,,,,,,,,,,43.1742117,131.93708025
352,3600000.0,"Владивосток, Тунгусская улица, 24",,,,,1,,,,1950.0,Кирпичный,,3.0,,Железобетонный,,Центральное,,,,,,1,,,,,,,,,,,,,,,,,,,,,43.115635100000006,131.92524443518056
353,37000000.0,"Владивосток, улица Станюковича, 48",3.0,197.7,,7.0,0,,1.0,,2002.0,Кирпичный,II-01,7.0,,Железобетонный,Бетонные столбы,Закрытая с приготовлением горячей воды на ИТП,,Центральное,Центральное,,,1,,,,,,,,,,,,,,,,,,,,,43.1063212,131.87140415857408
354,12000000.0,"Владивосток, Кипарисовая улица, 18",3.0,74.3,,5.0,1,Альтернатива,1.0,есть,1977.0,Панельный,125 (111-125),9.0,1.0,Железобетонный,Ленточный,Открытая с отбором сетевой воды на горячее водоснабжение из тепловой сети,,,,,,1,,,,,,,,,,,,,,,,,,,,,43.09196985,131.9191171008497
355,4250000.0,"Владивосток, Луговая улица, 68",,,,,0,,,есть,1981.0,Панельный,П-55,9.0,1.0,Железобетонный,Ленточный,Открытая с отбором сетевой воды на горячее водоснабжение из тепловой сети,,,,,,0,,,,,,,,,,,,,,,,,,,,,43.13282355,131.94753630881388
356,7500000.0,"Владивосток, Опорная улица, 18ак",2.0,52.6,10.0,1.0,0,,,,2024.0,Кирпичный,,4.0,,Железобетонный,,Центральное,52.0,,,,,0,,,,,,,,,,,,,,,,,,,,,43.2567353,132.0236065
357,6500000.0,"Владивосток, проспект 100",,,,,0,,,,2019.0,Монолитный,,25.0,,Железобетонный,,Центральное,,,,,,1,,,,1.0,,,,,,,,,,,,,,,,,43.1552073,131.911553
358,3500000.0,"Владивосток, улица Адмирала Угрюмова, 5",,,,,0,,,,1978.0,Кирпичный,v-кирпичный,5.0,,Железобетонный,Сборный,,,Центральное,Центральное,Центральное,,0,,,,,,,,,,,,,,,,,,,,,43.2081305,132.0931769115094
359,9950000.0,"Владивосток, улица Адмирала Горшкова, 8",2.0,54.8,6.0,6.0,0,,1.0,,,Кирпично-монолитный,,24.0,,,,,,,,,,1,,,,,,,,,,,,,,,,,,,,,43.1627073,131.9488599253081
360,10300000.0,"Приморскийкрай, Владивосток, улица Суханова, 5",3.0,53.2,,3.0,1,Свободная продажа,,,1912.0,Кирпичный,,5.0,,Железобетонный,,Открытая с отбором сетевой воды на горячее водоснабжение из тепловой сети,,Центральное,Центральное,Центральное,Центральное,1,,,,,,,,,,Больше пяти,,,2.0,нет,,,,,,,,
361,9500000.0,"Владивосток, улица Леонова, 70",2.0,37.2,15.0,22.0,1,,,,2019.0,Монолитный,,,,,,,,,,,,0,,,,,,,,,,,,,,,,,,,,,43.08745,131.856284
362,7850000.0,"Владивосток, Восточный Луч, улица Полковника Фесюна, 18",2.0,42.0,8.0,6.0,1,Свободная продажа,,,2023.0,Монолитный,,25.0,,Железобетонный,,,311.0,,,,,0,,2024.0,,,,,,,,,,,,,,,,,,,,
363,13850000.0,"Владивосток, улица Ладыгина, 11",4.0,87.3,,4.0,1,Свободная продажа,1.0,есть,1991.0,Панельный,,10.0,1.0,Железобетонный,Иной,Открытая с отбором сетевой воды на горячее водоснабжение из тепловой сети,,Центральное,,,,0,,,,,1.0,,,,,,,,,,,,,,,,43.1214301,131.9552268715009
365,2650000.0,"Владивосток, Снеговая улица, 125",1.0,16.6,5.0,6.0,1,Свободная продажа,,есть,1986.0,Панельный,И-III-3,9.0,,Железобетонный,Ленточный,Открытая с отбором сетевой воды на горячее водоснабжение из тепловой сети,,Центральное,,,,0,,,,,,,,,,,,,,,,,,,,,43.138096250000004,131.97620284981687
366,11000000.0,"Владивосток, Магнитогорская улица, 28",3.0,85.0,,6.0,1,,1.0,есть,1976.0,Кирпичный,,9.0,1.0,Железобетонный,Ленточный,Открытая с отбором сетевой воды на горячее водоснабжение из тепловой сети,,,,,,1,,,D,,,,,,,,,,,,,,,,,,43.178520250000005,131.91327914530802
367,25000000.0,"Владивосток, улица Прапорщика Комарова, 45",3.0,101.9,,9.0,1,Свободная продажа,,есть,2012.0,Монолитный,,14.0,1.0,Железобетонный,,Закрытая с приготовлением горячей воды на ЦТП,,Центральное,Центральное,,,0,,,,,,,,нет,нет,,,,,,,,,,,,43.1212679,131.893196955779
368,8700000.0,"Владивосток, Сочинская улица, 15",1.0,43.4,15.0,4.0,1,Свободная продажа,1.0,,2017.0,Монолитный,,19.0,1.0,Железобетонный,Иной,Закрытая с приготовлением горячей воды на ЦТП,,Центральное,Центральное,,,0,,,,,,,,,,,,,,,,,,,,,43.0814132,131.9596222
369,3750000.0,"Владивосток, Липовая улица, 2",,23.4,5.0,5.0,1,,,есть,1973.0,Панельный,,9.0,1.0,Железобетонный,Ленточный,Закрытая с приготовлением горячей воды на ЦТП,396.0,,,,,0,,,,,,,,,,,,,,,,,,,,,43.09605,131.8968723065593
370,21860000.0,"Владивосток, Партизанский проспект, 45в",3.0,68.8,12.0,9.0,0,,1.0,,2021.0,Монолитный,,25.0,,Железобетонный,,,,Центральное,,,,1,,,,,,,,,,,,,,,,,,,,,43.1293913,131.90486666444906
371,7800000.0,"Владивосток, Авиаторов улица, 11а",3.0,74.6,,4.0,0,,1.0,,2018.0,Панельный,,4.0,,Железобетонный,,Центральное,,,,,,0,,,,,,,,,,,,,,,,,,,,,43.206369949999996,131.944753908479
372,7850000.0,"Владивосток, Адмиралтейский, улица Анны Щетининой, 12",2.0,38.0,5.0,15.0,1,Свободная продажа,1.0,,2023.0,Монолитный,,24.0,,Железобетонный,,,,,,,,0,,,,,,,,,,,,,,,,,,,,,,
373,7900000.0,"Владивосток, улица Нестерова, 1",,,,,0,,,,2021.0,Монолитно-кирпичный,,25.0,,Железобетонный,,Поквартирный котел,,,,,,0,,,,,,,,,,,,,,,,,,,,,43.100162,131.946842
374,5100000.0,"Владивосток, Чистый Квартал, Русская улица, 63л",1.0,36.7,8.2,10.0,0,Свободная продажа,1.0,,,Панельный,,10.0,,,,,,,,,,0,,,,,,,,,,,,,,,,,,,,,,
375,3750000.0,"Владивосток, Луговая улица, 68",,,,,0,,,есть,1981.0,Панельный,П-55,9.0,1.0,Железобетонный,Ленточный,Открытая с отбором сетевой воды на горячее водоснабжение из тепловой сети,,,,,,0,,,,,,,,,,,,,,,,,,,,,43.13282355,131.94753630881388
376,5800000.0,"Владивосток, улица Гамарника, 9",,,,,1,,,есть,1973.0,Панельный,1-515-9,9.0,1.0,Железобетонный,Ленточный,Открытая с отбором сетевой воды на горячее водоснабжение из тепловой сети,,,,,,0,,,,,,,,,,,,,,,,,,,,,43.159408150000004,131.92075003235513
377,7000000.0,"Владивосток, улица Грибоедова, 46а",1.0,38.9,1.0,4.0,0,,1.0,,2022.0,Монолитный,,22.0,,Железобетонный,,Центральное,,,,,,1,,,,,,,,,,,,,,,,,,,,,43.1198395,131.9112378
378,4990000.0,"Владивосток, Русская улица, 98",1.0,35.9,,3.0,1,Свободная продажа,,есть,1985.0,Панельный,1-панельный,9.0,1.0,Железобетонный,Ленточный,,,,,,,0,,,D,,,30 м2,,,,Больше пяти,,,2.0,нет,,,,,,,43.17647425,131.9436439449807
379,11900000.0,"Владивосток, проспект Красного Знамени, 160а",2.0,53.3,7.6,1.0,1,,1.0,,2019.0,Монолитный,,24.0,,Железобетонный,,Центральное,,,,,,0,,,,,,,,,,,,,,,,,,,,,43.1203675,131.93121880348838
380,6400000.0,"Владивосток, улица Толстого, 29",2.0,56.1,10.0,1.0,1,,1.0,есть,1986.0,Панельный,1-панельный,9.0,1.0,Железобетонный,Иной,Открытая с отбором сетевой воды на горячее водоснабжение из тепловой сети,,,,,,0,,,,,,,,,,,,,,,,,,,,,43.1232944,131.91023097070612
381,6500000.0,"Владивосток, улица Адмирала Горшкова, 38",1.0,35.7,10.0,1.0,1,,1.0,есть,2010.0,Смешанные,,10.0,1.0,Железобетонный,Ленточный,Закрытая с приготовлением горячей воды на ЦТП,,Центральное,,,,0,,,,,,,,,,,,,,,,,,,,,43.16604985,131.9541044064111
382,11000000.0,"Владивосток, улица Давыдова, 35",,,,,1,,,есть,2001.0,Кирпичный,89152-к примогражданпроект,12.0,1.0,Железобетонный,Ленточный,,,,,,,0,,,B+,,,,,,,,,,,,,,,,,,43.1758235,131.92543638204492
383,5790000.0,"Владивосток, улица Адмирала Горшкова, 52к",1.0,37.6,5.0,2.0,0,Свободная продажа,,,2023.0,Монолитный,,25.0,,Железобетонный,,,220.0,,,,,0,,,,,,32 м2,,,,,,,,,,,,,,,43.167814449999995,131.96586772546414
384,9300000.0,"Владивосток, улица Толстого, 48",2.0,51.9,8.0,2.0,1,,1.0,есть,1981.0,Панельный,,9.0,1.0,Железобетонный,,Открытая с отбором сетевой воды на горячее водоснабжение из тепловой сети,,Центральное,Центральное,,,1,,,,,,,,,,,,,,,,,,,,,43.1229241,131.9168412617033
385,4450000.0,"Владивосток, улица Нейбута, 135",,26.4,1.0,1.0,0,,1.0,,,,,25.0,,,,,,,,,,1,,,,,,,,,,,,,,,,,,,,,43.114587349999994,131.9715006309379
386,8500000.0,"Владивосток, Пушкинская улица, 50",3.0,55.3,,5.0,1,,1.0,,1967.0,Кирпичный,,5.0,,Смешанный,,Открытая с отбором сетевой воды на горячее водоснабжение из тепловой сети,,Центральное,Центральное,Центральное,Центральное,0,,,,,,,,,,,,,,,,,,,,,43.114018099999996,131.9132826292958
387,12000000.0,"Владивосток, Шилкинская улица, 21",4.0,83.7,8.6,2.0,1,,1.0,есть,1989.0,Панельный,,9.0,1.0,Железобетонный,,Открытая с отбором сетевой воды на горячее водоснабжение из тепловой сети,,Центральное,Центральное,,,0,,,,,,,,,,,,,,,,,,,,,43.11869445,131.93082292182473
388,12500000.0,"Владивосток, улица Сипягина, 26",,,,,0,,,есть,1984.0,Панельный,1-панельный,9.0,1.0,Железобетонный,Иной,,1080.0,,,,,1,,,,,,,,,,,,,,,,,,,,,43.094198000000006,131.85877983664193
389,7500000.0,"Владивосток, Ласточкино Гнездо, Кипарисовая улица, 2",3.0,58.7,9.0,3.0,1,,1.0,есть,1994.0,Панельный,П-3,10.0,1.0,Железобетонный,Ленточный,Открытая с отбором сетевой воды на горячее водоснабжение из тепловой сети,,,,,,0,,,,,,,,,,,,,,,,,,,,,,
390,6100000.0,"Владивосток, улица Героев Хасана, 34",,,,,0,,,,1956.0,Блочный,,3.0,,Железобетонный,Ленточный,,,Центральное,Центральное,Центральное,,1,,,,,,,,,,,,Вытяжная,,,,,,,,,43.09790755,131.95058575700403
391,14900000.0,"Владивосток, улица Московская, 1",,,,,0,,,,2000.0,Кирпичный,v-кирпичный,15.0,1.0,Железобетонный,Сплошной,Центральное,124.0,,,,,1,,,,,,,,,,,,,,,,,,,,,43.125537,131.89385086210967
392,16500000.0,"Владивосток, Партизанский проспект, 52",,,,,0,,,,2006.0,Кирпичный,,14.0,1.0,Железобетонный,,Открытая с отбором сетевой воды на горячее водоснабжение из тепловой сети,,Центральное,,Центральное,Центральное,1,,,,,,,,,,,,,,,,,,,,,43.1285845,131.90612844994126
393,5000000.0,"Владивосток, улица Сабанеева, 16в",,20.1,5.6,6.0,0,,1.0,есть,2017.0,Монолитный,II-01,24.0,1.0,Железобетонный,Ленточный,Закрытая с приготовлением горячей воды на ЦТП,,,,,,1,,,,,,,,,,,,,,,,,,,,,43.12880895,131.9511256092946
394,9000000.0,"Владивосток, улица Борисенко, 100Б",3.0,67.0,12.5,2.0,1,,1.0,есть,1992.0,Панельный,111-83,10.0,1.0,Железобетонный,,Открытая с отбором сетевой воды на горячее водоснабжение из тепловой сети,,,,,,0,,,C,,,,,,,,,,,,,,,,,,43.084315000000004,131.96688782082612
395,5900000.0,"Владивосток, улица Терешковой, 15",1.0,31.3,6.0,4.0,1,,1.0,,1976.0,Панельный,1-515-9,5.0,,Железобетонный,Ленточный,Открытая с отбором сетевой воды на горячее водоснабжение из тепловой сети,,Центральное,Центральное,,,1,,,,,,,,,,,,,,,,,,,,,43.094851500000004,131.91678730647465
396,5500000.0,"Владивосток, Спортивная улица, 2",1.0,31.3,6.2,4.0,1,,,,1958.0,Кирпичный,v-кирпичный,4.0,,Железобетонный,Иной,Открытая с отбором сетевой воды на горячее водоснабжение из тепловой сети,,Центральное,Центральное,,,0,,,,,,,,,,,,,,,,,,,,,43.1069004,131.9387916
397,8200000.0,"Владивосток, Иртышская улица, 4",2.0,41.9,7.0,2.0,1,Свободная продажа,1.0,,1953.0,Кирпичный,1-513,5.0,,Железобетонный,Ленточный,Открытая с отбором сетевой воды на горячее водоснабжение из тепловой сети,,Центральное,Центральное,,,0,,,,,,,,,,,,,,,,,,,,,43.16260235,131.9186881932817
398,6800000.0,"Приморскийкрай, Владивосток, улица Нахимова, 5",2.0,43.0,,3.0,1,,1.0,,1973.0,Кирпичный,II-34,5.0,,Железобетонный,Ленточный,Открытая с отбором сетевой воды на горячее водоснабжение из тепловой сети,,Центральное,Центральное,,,0,,,,,,,,,,,,,,,,,,,,,,
399,5800000.0,"Владивосток, Находкинская улица, 9дк",2.0,46.6,8.0,4.0,0,,1.0,,,Блочный,,4.0,,,,,,,,,,0,,,,,,,,,,,,,,,,,,,,,,
400,4100000.0,"Владивосток, Нижнепортовая улица, 6г",,26.0,,8.0,1,Свободная продажа,,,2006.0,Монолитный,,7.0,,Железобетонный,,Центральное,,,,,,0,,,,,,23 м2,,нет,нет,,,,,,,,,,,,43.0992007,131.8644681
401,22500000.0,"Владивосток, Очаковская улица, 7",3.0,72.6,23.0,14.0,1,,1.0,,2018.0,Монолитный,,25.0,,Железобетонный,,Центральное,,,,,,1,,,,,,,,,,,,,,,,,,,,,43.101535,131.900501
402,10000000.0,"Владивосток, улица Нейбута, 139",3.0,75.4,5.0,6.0,1,,1.0,,2018.0,Монолитный,,10.0,,Железобетонный,,Центральное,,,,,,0,,,,,,,,,,,,,,,,,,,,,43.1189565,131.9684815
403,6650000.0,"Владивосток, улица Лесная, 3д",1.0,31.6,5.0,2.0,0,Альтернатива,1.0,,,Кирпичный,,3.0,,,,,,,,,,0,,,,,,,,,,,,,,,,,,,,,43.1837352,131.92520064584687
404,8600000.0,"Владивосток, проспект Красного Знамени, 160а",2.0,46.0,,5.0,0,Свободная продажа,1.0,,2019.0,Монолитный,,24.0,,Железобетонный,,Центральное,,,,,,1,,,,,,,,,,,,,,,,,,,,,43.1203675,131.93121880348838
405,25000000.0,"Владивосток, Феодосийская улица, 35",4.0,104.0,30.0,22.0,1,Альтернатива,,,2020.0,Кирпичный,,24.0,,Железобетонный,,Поквартирный котел,,,,,,0,,,,,,,,,,,,,,,,,,,,,43.086846800000004,131.9613083997826
406,6100000.0,"Владивосток, Аллилуева улица, 6",1.0,32.7,7.0,9.0,1,,1.0,есть,1984.0,Панельный,,12.0,,Железобетонный,,Центральное,,,,,,1,,,,,,,,,есть,,,,,,,,,,,,43.12551685,131.9265942
407,17000000.0,"Владивосток, улица Жигура, 12а",3.0,79.8,10.0,14.0,1,,1.0,есть,2016.0,Монолитный,01-пз индивидуальный проект,24.0,1.0,Железобетонный,Ленточный,Открытая с отбором сетевой воды на горячее водоснабжение из тепловой сети,,,,,,1,,,,,,,,,,,,,,,,,,,,,43.1274797,131.92374176525038
408,10000000.0,"Владивосток, улица Вилкова, 5",6.0,93.2,5.2,1.0,1,Альтернатива,1.0,,1969.0,Панельный,1-панельный,6.0,,Железобетонный,Ленточный,Открытая с отбором сетевой воды на горячее водоснабжение из тепловой сети,,Центральное,Центральное,,,0,,,,,,,,,,,,,,,,,,,,,43.1004632,131.9292845
409,9300000.0,"Владивосток, Некрасовская улица, 76",3.0,61.0,,1.0,1,Альтернатива,1.0,есть,1978.0,Панельный,81,9.0,1.0,Железобетонный,Сборный,Открытая с отбором сетевой воды на горячее водоснабжение из тепловой сети,,,,,,0,,,,,,,,,,,,,,,,,,,,,43.1262146,131.9114071
410,6600000.0,"Владивосток, улица Глинки, 10",2.0,43.5,6.0,3.0,1,,1.0,есть,1971.0,Кирпичный,,9.0,1.0,Железобетонный,Ленточный,,52.0,,,,,0,,,D,,,,,,,,,,,,,,,,,,43.21760255,131.9536234472022
411,7500000.0,"Владивосток, улица Овчинникова, 24",2.0,45.4,9.0,4.0,1,,1.0,,1961.0,Панельный,II-32,5.0,,Железобетонный,Ленточный,Открытая с отбором сетевой воды на горячее водоснабжение из тепловой сети,40.0,Центральное,,,,1,,,,,,,,,,,,,,,,,,,,,43.154676699999996,131.90855013020825
412,13600000.0,"Владивосток, проспект Красного Знамени, 121ст",3.0,67.3,8.0,1.0,1,,1.0,,,Панельный,,9.0,,,,,,,,,,0,,,,,,,,,,,,,,,,,,,,,,
413,8700000.0,"Владивосток, улица Адмирала Горшкова, 57",2.0,42.0,12.0,5.0,1,,1.0,,2021.0,Панельный,,10.0,1.0,Железобетонный,,Центральное,,,,,,1,,,,,,,,,,,,,,,,,,,,,43.16793685,131.95477406254864
414,7950000.0,"Владивосток, улица Ильичёва, 11",2.0,43.9,,7.0,1,Свободная продажа,,есть,1967.0,Кирпичный,II-29,9.0,1.0,Железобетонный,Сборный,,54.0,,,,,0,,,,,,,,нет,нет,,,,,,,,,,,,43.1470437,131.90883739999998
415,18600000.0,"Владивосток, Некрасовская улица, 48а",,,,,0,,,есть,2002.0,Кирпичный,,15.0,1.0,Железобетонный,Ленточный,Открытая с отбором сетевой воды на горячее водоснабжение из тепловой сети,,Центральное,,,,0,,,,,,,,,,,,,,,,,,,,,43.1204185,131.9072189106763
416,9900000.0,"Владивосток, улица Сипягина, 26",3.0,69.2,9.0,1.0,1,,1.0,есть,1984.0,Панельный,1-панельный,9.0,1.0,Железобетонный,Иной,,1080.0,,,,,1,,,,,1.0,,,,,,,,,,,,,,,,43.094198000000006,131.85877983664193
417,13181000.0,"Владивосток, улица Прапорщика Комарова, 52",2.0,36.7,8.0,2.0,1,Свободная продажа,,,1960.0,Кирпичный,,5.0,,Смешанный,,Открытая с отбором сетевой воды на горячее водоснабжение из тепловой сети,,Центральное,Центральное,Центральное,,0,,,,,,,,,,,,Приточно-вытяжная,,,,,,,,,43.12054139999999,131.89367415047582
418,2650000.0,"Владивосток, улица Адмирала Корнилова, 12",1.0,12.2,,1.0,1,,,,1970.0,Кирпичный,II-14,5.0,,Железобетонный,Ленточный,,,Центральное,Центральное,,,0,,,C,,,,,,,,,,,,,,,,,,,
419,8200000.0,"Владивосток, улица Давыдова, 35",1.0,44.5,10.0,5.0,1,,1.0,есть,2001.0,Кирпичный,89152-к примогражданпроект,12.0,1.0,Железобетонный,Ленточный,,,,,,,1,,,B+,,,,,,,,,,,,,,,,,,43.1758235,131.92543638204492
